name,latitude,longitude,type,volcano_number
Adamozhets,54.688,159.483,Minor | Cone,300847
Acquasparta,42.65,12.3,Cluster | Volcanic field,211804
Acatlan Volcanic Field,20.45,-103.57,Caldera | Volcanic field,341822
Acotango,-18.37,-69.05,Composite | Stratovolcano(es),355813
Addington Volcanic Field,55.44,-134.17,Cluster | Volcanic field,315055
Aguas Delgadas,-24.45,-68.4,Composite | Stratovolcano,355857
"Ahon, Tarso",20.539,18.29,Cluster | Volcanic field,225819
Aird Hills,-7.45,144.35,Minor | Lava dome(s),253814
"Aguajito, El",27.554,-112.552,Caldera | Caldera,341802
Aitutaki,-18.9,-159.77,Shield | Shield,333805
Aizu Nunobiki,37.321,140.018,Composite | Stratovolcano,283866
Akaigawa,43.08,140.82,Composite | Stratovolcano,285810
Akhtang,55.43,158.65,Shield | Shield,300320
Albuquerque Volcanic Field,35.12,-106.75,Cluster | Volcanic field,327816
Aldama Volcanic Field,23.2,-98.02,Cluster | Volcanic field,341836
Akhuryan Valley,41.067,43.75,Cluster | Volcanic field,214802
Alicudi,38.55,14.33,Composite | Stratovolcano,211818
Aegina,37.75,23.5,Cluster | Volcanic field,212802
Alexander Selkirk,-33.763,-80.811,Shield | Shield,356801
Ali Mela,12.718,41.396,Minor | Cone,221803
Alngey,57.702,160.418,Composite | Stratovolcano,300600
Alto,11.108,124.75,Composite | Compound,272802
Altar,-1.67,-78.42,Composite | Stratovolcano,352824
"Alutate, Cerro",14.647,-90.144,Composite | Stratovolcano,342807
Alice Arm,55.43,-129.37,Cluster | Volcanic field,320808
Amasing,-0.5249,127.4956,Composite | Stratovolcano(es),268072
Amboy,34.55,-115.78,Minor | Pyroclastic cone,323826
Ambre,-12.6,49.15,Cluster | Volcanic field,233011
Amorong Group,15.825,120.742,Cluster | Volcanic field,273085
Amiata,42.9,11.63,Minor | Lava dome(s),211800
Ampiro,8.388,123.63,Composite | Stratovolcano?,271805
"Ananopa, Cerro",14.9,-89.93,Cluster | Volcanic field,342812
"Anallajsi, Nevado",-17.92,-68.92,Composite | Stratovolcano,355806
Anaun,56.32,158.83,Composite | Stratovolcano,300390
Adare Peninsula,-71.7,170.6,Shield | Shield(s),390811
Aneityum,-20.1875,169.8194,Composite | Stratovolcano(es),257110
Anilao Hill,13.9,121.18,Minor | Pyroclastic cone,273808
Antiparos,36.995,25.046,Minor | Pyroclastic cone(s),212804
Antipin,46.15,150.23,Composite | Stratovolcano,290804
Animas,1.568,-76.857,Composite | Stratovolcano,351810
Antipodes Island,-49.684,178.781,Minor | Pyroclastic cone(s),335010
Anjouan,-12.2,44.45,Shield | Shield,233801
Anjuisky,67.154,165.82,Minor | Pyroclastic cone(s),301801
Antofagasta Volcanic Field,-26.12,-67.4,Cluster | Volcanic field,355180
Aonoyama,34.459,131.798,Minor | Lava dome(s),283805
Aoso,38.082,140.611,Composite | Stratovolcano,283871
Apagado,-22.05,-67.97,Composite | Stratovolcano,355830
Apan-Tezontepec,19.75,-98.5,Cluster | Volcanic field,341838
Antofalla,-25.55,-67.92,Composite | Stratovolcano(es),355867
Apas-Navenchauc,16.716,-92.786,Caldera | Caldera(s),341831
Apastepeque Field,13.6958,-88.7722,Cluster | Volcanic field,343071
Adagdak,51.988,-176.592,Composite | Stratovolcano,311800
Apoyo,11.92,-86.03,Caldera | Caldera,344802
Apuseni Mountains,45.93,22.88,Cluster | Volcanic field,210803
Arayat,15.2,120.742,Composite | Stratovolcano,273084
Argo Point,-66.25,-60.92,Minor | Pyroclastic cone,390830
Apo,6.989,125.269,Composite | Stratovolcano,271030
Argowayang,-7.77,112.43,Composite | Stratovolcano,263822
Arintica,-18.75,-69.05,Composite | Stratovolcano(es),355814
Asakusa,37.341,139.237,Composite | Stratovolcano,283867
Arpacay,41.0,43.467,Cluster | Volcanic field,213803
"Ascotan, Cerro",-21.68,-68.12,Composite | Stratovolcano,355826
Arkhangelsky,46.5165,151.4124,Composite | Stratovolcano,290160
Asgura,11.75,40.9,Composite | Stratovolcano,221808
Ashitaka,35.238,138.794,Composite | Stratovolcano,283822
Asie,2.964,37.104,Shield | Shield,222801
Ata Volcanic Complex,-22.337,-176.21,Composite | Unknown,243015
Atherton Basalt Province,-17.3,145.72,Cluster | Shield(s),259803
Auca Mahuida Volcanic Field,-37.738,-68.924,Cluster | Volcanic field,357807
Aurora-Bodie,38.32,-118.88,Cluster | Volcanic field,326802
Avos' Rocks,49.72,154.12,Unknown | Unknown,290810
Axial Chain,16.12,-61.7,Composite | Stratovolcano(es),360810
Aucanquilcha,-21.22,-68.47,Composite | Stratovolcano,355823
Ayame-daira,36.895,139.243,Composite | Stratovolcano(es),283862
Adachi,38.218,140.654,Minor | Pyroclastic cone,283874
Ayarza,14.42,-90.12,Caldera | Caldera(s),342806
Azrou Volcanic Field,33.67,-5.17,Cluster | Volcanic field,225813
"Azufre, Cerro del",-21.787,-68.237,Composite | Stratovolcano,355061
"Azufre, El",-25.37,-68.88,Unknown | Unknown,355859
"Azul, Volcan",12.549,-83.968,Minor | Pyroclastic cone(s),344140
"Azufres, Los",19.85,-100.63,Caldera | Caldera,341824
Azumayasan,36.541,138.412,Composite | Stratovolcano,283849
Badi,12.387,40.366,Composite | Stratovolcano,221805
Babba'Olou,11.55,42.133,Composite | Stratovolcano,221825
Bagabag,-4.78,146.23,Composite | Stratovolcano,251802
Bailey,43.155,-122.219,Shield | Shield,322828
Bakanovi,-6.15,155.35,Composite | Stratovolcano,255802
Bakony-Balaton Highland,46.92,17.63,Cluster | Volcanic field,210805
Baldface Mountain,52.742,-124.458,Cluster | Volcanic field,320135
Balatukan,8.77,124.98,Composite | Compound,271072
Bald Knoll,37.328,-112.408,Minor | Pyroclastic cone(s),327030
Baluan,-2.5578,147.285,Composite | Stratovolcano,250020
Balagan-Tas,65.959,145.893,Minor | Pyroclastic cone(s),301805
Balut,5.398,125.376,Composite | Stratovolcano,271010
Balintang,19.9574,122.1442,Composite | Stratovolcano,274035
Ban Chiang Khian,19.8,100.0,Unknown | Unknown,275817
Ban Hui Sai,20.3,100.3,Unknown | Unknown,275818
Bangum,-5.345,149.94,Composite | Stratovolcano,252802
Ban Chay Plateau,13.883,107.4,Cluster | Volcanic field,275804
Barahona,14.55,-90.78,Caldera | Caldera(s),342802
"Baqarah, Jabal",18.024,42.092,Minor | Cone,231073
Acoculco,19.97,-98.2,Caldera | Caldera,341827
Barus,3.204,98.564,Composite | Stratovolcano,261824
Bas Song Be,11.67,106.67,Cluster | Volcanic field,275807
Bas Dong Nai,10.833,107.283,Cluster | Volcanic field,275050
Basalt Knob,58.03,-136.33,Minor | Cone,315808
Beethoven Peninsula,-71.55,-73.42,Cluster | Volcanic field,390825
Beaufort Island,-76.98,167.02,Composite | Stratovolcano,390845
Beliling,-8.62,119.97,Unknown | Unknown,264842
Bazman,28.07,60.0,Composite | Stratovolcano,232030
Belenkaya,51.75,157.27,Composite | Stratovolcano,300042
Bekulap,3.288,98.351,Minor | Lava dome(s) ?,261811
Berguent Volcanic Field,33.75,-2.4,Cluster | Volcanic field,225816
Bely,57.88,160.53,Shield | Shield(s),300640
Biaro,2.1028,125.3667,Composite | Unknown,267005
Big Bunchgrass,42.703,-122.194,Minor | Pyroclastic cone,322830
Big Cave,40.955,-121.365,Shield | Shield,323805
"Biao, Pico",3.3581,8.6256,Shield | Shield,224003
Big Pine Volcanic Field,37.05,-118.25,Minor | Pyroclastic cone(s),323823
Besar,-4.437,103.671,Composite | Stratovolcano?,261250
Bibinoi,-0.761,127.725,Composite | Stratovolcano(es),268073
Aak,53.38,158.67,Composite | Stratovolcano(es),300830
Bijar Volcanic Field,35.583,47.8,Cluster | Volcanic field,232800
Bishamondake,35.936,136.795,Composite | Stratovolcano,283830
Black Crater,44.266,-121.749,Shield | Shield(s),322808
Biwau Hills,-7.32,143.28,Minor | Pyroclastic cone(s),253804
Biu Plateau,10.75,12.088,Cluster | Volcanic field,224050
Blackfoot Lava Field,42.85,-111.75,Cluster | Volcanic field,324803
Blacks Mountain,40.775,-121.191,Shield | Shield,323810
Blafell,64.492,-19.87,Composite | Tuya,371809
Blafjall,65.43,-16.85,Composite | Tuya,373805
Blit,6.958,124.23,Unknown | Unknown,271800
Birao,43.498,144.408,Composite | Stratovolcano(es),285824
Bliznets,56.97,159.78,Composite | Stratovolcano,300490
Blue Mountain,57.72,-156.847,Cluster | Volcanic field,312803
Bogachensky,55.13,160.9,Shield | Shield,300848
Bogoria,0.25,36.08,Shield | Shield,222803
Boku,8.55,39.275,Caldera | Caldera,221224
Boisa,-3.9935,144.9658,Composite | Stratovolcano,251011
Bolshaya Ipelka,52.63,156.97,Shield | Shield,300822
Bolshaya Romanovka,55.73,158.77,Shield | Shield,300876
Bokeo Volcanic Plateau,13.75,107.092,Cluster | Volcanic field,275835
Bolshoi Payalpan,55.88,157.78,Shield | Shield(s),300300
Bolshoy Chekchebonay,56.92,159.42,Shield | Shield,300892
Bolshoy Kozyrevsky,55.6,158.52,Shield | Shield,300875
Bongabti,55.83,158.32,Shield | Shield,300878
Bolshoy Ketepana,57.05,158.37,Shield | Shield,300885
Borawli,11.63,41.45,Minor | Lava dome(s),221121
Boring Lava,45.3,-122.5,Cluster | Volcanic field,322800
Bowie Seamount,53.3,-135.65,Minor | Lava dome,331200
Bosavi,-6.58,142.82,Composite | Stratovolcano,253802
Bouillante Chain,16.12,-61.75,Minor | Maar(s),360811
Brabant Island,-64.28,-62.33,Cluster | Volcanic field,390826
Broken Top,44.08,-121.7,Composite | Stratovolcano,322811
Brontona Island,46.721,150.733,Unknown | Unknown,290806
Black Butte,44.4,-121.63,Composite | Stratovolcano,322806
Bundaberg-Boyne Province,-25.58,151.87,Minor | Pyroclastic cone(s),259809
Bruntal Volcanic Field,49.88,17.475,Cluster | Volcanic field,210810
Buffalo Valley,40.35,-117.3,Cluster | Volcanic field,326800
Burfell,65.55,-16.65,Composite | Tuya,373806
Buriram,15.0,103.0,Unknown | Unknown,275814
Burko,-3.3,36.22,Composite | Stratovolcano,222813
Burney Mountain,40.806,-121.628,Minor | Lava dome(s),323807
Bursey,-76.0,-132.67,Shield | Shield(s),390820
"Buena Vista, Cerro",13.25,-88.15,Composite | Stratovolcano,343804
"Cacahuatique, Cerro",13.75,-88.2,Composite | Stratovolcano,343803
Cakrabuana,-7.03,108.13,Composite | Stratovolcano,263806
"Calanterique, Cerro",14.6,-87.87,Minor | Lava cone,343821
Cancajanag,11.07,124.78,Minor | Lava dome(s),272803
Camargo Volcanic Field,27.75,-104.42,Cluster | Pyroclastic cone(s),341807
Canlancang,-6.958,107.95,Unknown | Unknown,263818
"Cantaro, Volcan el",19.72,-103.63,Composite | Stratovolcano,341823
Capital,62.43,-144.12,Shield | Shield,315801
Black Island,-78.22,166.33,Minor | Pyroclastic cone(s),390816
Cappy Mountain,43.31,-121.979,Composite | Stratovolcano,322822
Caquena,-18.07,-69.22,Minor | Lava dome(s),355811
"Caraïbes, Monts",15.97,-61.68,Composite | Stratovolcano,360812
Buduli,56.4,158.7,Shield | Shield,300880
Capur,-24.02,-67.85,Composite | Stratovolcano,355856
Cap-Vert,14.7238,-17.5019,Minor | Volcanic field,225801
Caribou,40.6,-121.15,Cluster | Volcanic field,323813
"Carbets, Pitons de",14.7,-61.12,Composite | Stratovolcano,360815
Carihuairazo,-1.404,-78.75,Composite | Stratovolcano,352821
Casitagua,-0.036,-78.48,Composite | Stratovolcano,352808
Cat Hills,34.83,-106.83,Cluster | Volcanic field,327815
Cañapa,-21.5,-68.12,Composite | Stratovolcano,355825
Central Segment,41.78,-127.109,Cluster | Fissure vent,331033
Central Slovakia,48.403,18.877,Cluster | Volcanic field,210809
Centre Hills,16.759,-62.196,Minor | Lava dome(s),360808
Ceyhan-Osmaniye,37.0,36.083,Cluster | Volcanic field,213061
Cariliao,14.13,120.75,Composite | Stratovolcano,273809
Chachani Volcanic Complex,-16.1792,-71.5292,Cluster | Stratovolcano,354007
Ch'Ilalo,7.92,39.27,Composite | Stratovolcano,221817
Chamorro,20.81,144.704,Unknown | Unknown,284147
Chanthaburi,12.5,102.2,Unknown | Unknown,275815
"Chascon, Cerro",-21.88,-67.9,Minor | Lava dome,355829
Bolaven Plateau,15.142,106.45,Cluster | Fissure vent(s),275813
Chavycha,56.55,158.65,Shield | Shield(s),300883
Black Butte,40.45,-122.0,Minor | Pyroclastic cone,323816
Cham,12.1,105.6,Unknown | Unknown,275809
Brushy Butte,41.178,-121.445,Shield | Shield,323030
Cheref,19.406,145.468,Composite | Stratovolcano,284151
Cheb Basin,49.97,12.392,Cluster | Volcanic field,210811
Chew Bahir,4.47,36.87,Minor | Pyroclastic cone(s),221822
Chifeng,42.25,118.5,Unknown | Unknown,305845
Brown Mountain,42.365,-122.27,Shield | Shield,322835
Chilcotin Group-South,50.15,-119.62,Cluster | Volcanic field,320813
Chiltazon,0.687,-78.021,Composite | Stratovolcano,352805
Chilung Group,25.08,121.85,Minor | Lava dome(s),281802
China Hat-East Butte,43.681,-121.034,Minor | Lava dome(s),322823
Chiquimula Volcanic Field,14.83,-89.55,Cluster | Volcanic field,342200
Calpi,-1.634,-78.728,Minor | Tuff cone(s),352823
Chalupas,-0.804,-78.3,Caldera | Caldera,352826
"Chi, Tarso Emi",21.22,18.52,Cluster | Volcanic field,225818
Chott Tigri Volcanic Field,32.92,-1.85,Cluster | Volcanic field,225817
Chojagahara,34.271,131.669,Minor | Pyroclastic cone,283804
"Chopo, Cerro",10.472,-85.07,Minor | Pyroclastic cone,345800
Chubetsu,43.589,142.898,Composite | Stratovolcano,285817
Chudleigh Volcanic Province,-19.73,144.2,Cluster | Shield(s),259806
Chup,11.9,105.82,Unknown | Unknown,275810
Cibugis,-6.5,106.57,Composite | Stratovolcano,263811
Cinder Butte,40.87,-121.49,Shield | Shield,323806
"Ciguatepe, Cerro el",12.5351,-86.1439,Composite | Stratovolcano,344132
Cikuray,-7.322,107.86,Composite | Stratovolcano,263816
Clayton Valley,37.82,-117.62,Minor | Pyroclastic cone,326804
Cochiquito Volcanic Group,-36.739,-69.834,Composite | Stratovolcano(es),357071
Cole,-33.411,179.953,Composite | Stratovolcano,241202
Cofrentes,39.235,-1.064,Cluster | Volcanic field,210814
"Coco, Isla del",5.53,-87.082,Shield | Shield,345811
"Colorado, Cerro",-26.18,-68.37,Composite | Stratovolcano,355869
"Colorado, Lomas de",10.658,-83.721,Shield | Shield(s),345807
"Cariquima, Cerro",-19.55,-68.68,Composite | Stratovolcano,355818
"Columbretes, Islas",39.896,0.686,Cluster | Volcanic field,210816
Cima Lava Field,35.27,-115.75,Cluster | Volcanic field,323825
Conchagua,13.275,-87.845,Composite | Stratovolcano,343110
Cone-Culasi,13.92,123.02,Cluster | Volcanic field,273803
Copa-Ocana,-20.643,-68.439,Composite | Stratovolcano(es),355822
Conchaguita,13.229,-87.767,Composite | Stratovolcano,343120
Copco Lake,41.97,-122.33,Minor | Pyroclastic cone(s),323800
Chalpatan,0.711,-77.784,Caldera | Caldera,352804
Coso Volcanic Field,36.03,-117.82,Cluster | Lava dome(s),323180
Cotacachi,0.364,-78.351,Composite | Stratovolcano,352802
Cowhorn Mountain,43.4,-122.054,Shield | Shield(s),322821
Crary Group,-76.767,-117.717,Cluster | Shield(s),390823
Cherny,56.82,159.67,Composite | Stratovolcano,300460
Crater Mountain,-6.581,145.091,Composite | Stratovolcano,253001
Crater Flat,36.77,-116.55,Cluster | Volcanic field,326805
Crown Island,-5.117,146.952,Composite | Stratovolcano,251803
Cuernos del Diablo,-41.363,-72.005,Composite | Stratovolcano,358021
Cuernos de Negros,9.25,123.17,Composite | Complex,272010
Culpepper,1.62,-92.0,Shield | Shield,353800
Cupaello,42.43,12.93,Minor | Pyroclastic cone,211806
Cultus Mountain,43.819,-121.871,Shield | Shield,322815
Cupit Mary Mountain,43.731,-122.11,Shield | Shield,322817
Cusin,0.127,-78.154,Composite | Stratovolcano,352803
Curutu,-23.17,-67.07,Composite | Stratovolcano,355845
Cutanga,1.875,-76.525,Caldera | Unknown,351809
Dacht-i-Navar Group,33.95,67.92,Minor | Lava dome(s),232060
Cuxliquel,14.889,-91.398,Minor | Lava dome(s),342801
Chilcotin Group-North,51.45,-122.33,Cluster | Volcanic field,320810
Dagit-Dagitan,13.53,121.078,Composite | Stratovolcano,273805
Dainichigatake,35.998,136.841,Composite | Stratovolcano,283831
Daikonjima,35.493,133.174,Minor | Pyroclastic cone,283809
Dainichiyama,36.15,136.5,Composite | Stratovolcano,283835
Daira-Komagatake,40.41,140.255,Composite | Stratovolcano,283897
Daisen,35.368,133.549,Composite | Stratovolcano,283811
Daito,38.299,140.527,Composite | Stratovolcano,283875
Dalaha'ale,12.274,42.044,Composite | Stratovolcano,221810
Dalainuoer,44.0,115.5,Cluster | Pyroclastic cone(s),305806
Darai Hills,-6.8,143.08,Cluster | Volcanic field,253803
Darlac Volcanic Field,12.88,108.2,Cluster | Cone(s),275806
Dark Mountain,58.52,-129.6,Cluster | Volcanic field,320805
Chericha,6.712,38.085,Composite | Stratovolcano,221300
Daruma,34.952,138.843,Composite | Stratovolcano,283817
Data Gabalti,12.197,42.135,Composite | Stratovolcano,221811
Datong-Fengzen,40.0,113.28,Cluster | Volcanic field,305803
"Daun, Bukit",-3.38,102.37,Composite | Stratovolcano(es),261210
Dawa Ale-Quarry,12.75,41.0,Composite | Stratovolcano,221804
Ded i Baba,51.3,156.58,Shield | Shield,300802
Defiance,45.649,-121.723,Shield | Shield,322801
Dehaj-Meduk,30.33,55.5,Cluster | Volcanic field,232807
Corvo,39.699,-31.111,Composite | Stratovolcano,382002
Deslinde,-22.27,-67.97,Composite | Stratovolcano,355833
Coronado,29.089,-113.515,Composite | Stratovolcano,341005
Derinkuyu Volcanic Complex,38.35,34.5567,Cluster | Lava dome,213003
Devils Desk,58.474,-154.306,Composite | Stratovolcano,312805
Dgida Basin,50.52,103.25,Cluster | Pyroclastic cone(s),302800
Didolli,12.7,41.58,Caldera | Caldera,221801
Diamond Peak,43.521,-122.148,Shield | Shield,322826
Discovery,-78.374,165.015,Composite | Stratovolcano,590835
Dilo-Dukana Volcanic Field,4.063,37.488,Cluster | Volcanic field,221335
Doma Peaks,-5.9,143.15,Composite | Stratovolcano,253000
Domuyo,-36.638,-70.432,Composite | Stratovolcano,357067
Diogo,20.7085,121.9297,Composite | Compound,274070
Dos Hermanos,18.75,-70.92,Cluster | Volcanic field,360803
Dorobu,36.898,139.579,Caldera | Caldera,283898
Double Glacier,60.68,-152.62,Minor | Lava dome(s),313800
Duau,-6.92,144.58,Composite | Stratovolcano,253812
Duguna,6.95,38.07,Composite | Stratovolcano,221819
Drum,62.12,-144.63,Composite | Stratovolcano,315803
Durika,9.374,-83.302,Minor | Lava dome(s),345810
Dvukhyurtochny,56.82,159.88,Shield | Shield,300894
Dzau,42.404,44.004,Cluster | Fissure vent,214808
Eagle Lake Field,40.63,-120.83,Cluster | Fissure vent(s),323090
East Eifel Volcanic Field,50.4,7.325,Cluster | Maar(s),210812
East Mata,-15.102,-173.677,Composite | Compound,243131
Corregidor,14.4,120.58,Caldera | Caldera,273810
East Molokai,21.12,-156.87,Shield | Shield,332805
Dunhua,43.163,127.939,Unknown | Unknown,305852
Ditmara,53.87,159.53,Composite | Stratovolcano,300841
East Neh,31.333,60.126,Minor | Unknown,232812
East Tanna,-19.42,169.45,Composite | Stratovolcano,257809
Eboshi,36.43,138.39,Composite | Stratovolcano,283847
Copiapo,-27.3,-69.13,Composite | Stratovolcano,355140
East Tuva Volcanic Field,52.433,98.303,Cluster | Volcanic field,302070
Eboshi-Washigatake,35.937,136.974,Composite | Stratovolcano,283829
Dittmar,40.453,-121.347,Composite | Stratovolcano,323817
Eggella,56.57,158.52,Shield | Shield,300420
Egrikuyu Monogenetic Field,37.892,34.1113,Cluster | Volcanic field,213005
Endut,-6.62,106.37,Composite | Stratovolcano,263800
Egersuwa,12.45,42.166,Minor | Lava dome(s),221812
Eifuku,21.409,144.161,Composite | Stratovolcano,284145
Eríksjokull,64.77,-20.4,Composite | Tuya,371807
Esan Maruyama,41.849,141.097,Composite | Stratovolcano,285803
"Escondido, El",5.514,-75.043,Minor | Lava dome,351002
Esteli,13.17,-86.4,Cluster | Fissure vent(s),344131
Espenberg,66.35,-164.33,Cluster | Volcanic field,314806
Etopan,55.97,157.63,Shield | Shield,300871
Corazon,-0.528,-78.658,Composite | Stratovolcano,352815
Ela,12.519,41.19,Composite | Stratovolcano,221807
Fedotych,57.13,160.4,Shield | Shield,300510
Etrusk,39.032,43.66,Composite | Stratovolcano,213023
Fanjiatung Group,43.75,125.17,Minor | Cone(s),305854
Favenc,-6.97,144.68,Composite | Stratovolcano,253813
Feinga Seamount,-20.154,-175.163,Composite | Complex,243055
Fatu Hiva,-10.47,-138.65,Shield | Shield,333801
Feni,-4.0815,153.6193,Composite | Stratovolcano,254020
Escala,-21.6,-66.88,Minor | Lava dome,355827
Finini,11.98,41.35,Composite | Stratovolcano,221809
"Firura, Nevados",-15.23,-72.63,Composite | Stratovolcano(es),354802
Filicudi,38.58,14.55,Composite | Stratovolcano(es),211817
Fjallgardar Ridge,65.5,-15.67,Cluster | Fissure vent(s),373807
Floreana,-1.3,-90.45,Shield | Shield,353805
Fort Rock Volcanic Field,43.392,-121.142,Cluster | Maar(s),322825
Four Craters Lava Field,43.361,-120.669,Cluster | Volcanic field,322140
Fox,-18.85,145.8,Minor | Pyroclastic cone,259805
Franklin Island,-76.17,168.38,Shield | Shield,390844
Foundland,15.27,-61.28,Composite | Stratovolcano,360814
Fuji Mountain,43.659,-122.103,Shield | Shield(s),322818
"Flores, Los",22.58,-99.38,Cluster | Volcanic field,341837
"Ernici, Monti",41.58,13.33,Cluster | Volcanic field,211810
Fumarole Butte,39.616,-112.803,Shield | Shield,327803
Futago,33.58,131.604,Minor | Lava dome(s),282816
Funagata,38.453,140.623,Composite | Stratovolcano(es),283876
Futamata,37.243,139.97,Composite | Stratovolcano,283865
Gad Elu,12.408,41.06,Composite | Stratovolcano,221806
Gademota Caldera,7.88,38.6,Caldera | Caldera,221818
Gaesafjoll,65.775,-16.88,Composite | Tuya,373808
Gaeta Bay Volcanic Field,40.978,13.663,Cluster | Volcanic field,211822
Gajajima,29.904,129.541,Composite | Stratovolcano,282801
"Galan, Cerro",-25.93,-66.92,Caldera | Caldera,355868
Gallego,-9.35,159.73,Cluster | Volcanic field,255062
Gamble,-27.2,-177.41,Composite | Stratovolcano,242042
Gandom Beryan,31.343,57.517,Minor | Unknown,232806
Gankyoji,36.054,136.743,Composite | Stratovolcano,283833
Gaojianshi,17.0,112.5,Unknown | Unknown,275834
Ganto-Kamuro,38.196,140.48,Composite | Stratovolcano(es),283873
Gassan,38.546,140.03,Composite | Stratovolcano,283877
Gate Mountains,12.6,123.997,Unknown | Unknown,273800
Gaussberg,-66.78,89.3,Minor | Cone,390810
"Garu, Morne",13.292,-61.2,Composite | Stratovolcano,360817
Garove,-4.687,149.511,Composite | Stratovolcano,252030
Erkeshan,48.056,126.261,Minor | Pyroclastic cone(s),305809
"Gavilantepeque, Cerro",14.0,-87.18,Shield | Shield,343819
Gede,-5.93,106.07,Unknown | Unknown,263810
Gertrude Creek,58.034,-156.146,Minor | Pyroclastic cone,312804
Gelai,-2.6,36.1,Shield | Shield,222806
Geronimo,32.5,-109.25,Cluster | Volcanic field,329804
Geureudong,4.813,96.82,Composite | Stratovolcano,261809
Geureugoh,5.15,96.67,Cluster | Fissure vent(s),261803
Gharyan Volcanic Field,32.0,13.25,Composite | Stratovolcano(es),225806
Geysir,64.32,-20.3,Composite | Stratovolcano,371803
Gilbert,54.25,-165.65,Composite | Stratovolcano,311803
Gilibanta,-8.42,119.32,Composite | Stratovolcano?,264839
Emperor Range,-5.7,154.95,Caldera | Caldera(s),255800
Giluwe,-6.0432,143.8865,Shield | Shield,253807
Giljanes,-34.775,178.579,Composite | Stratovolcano,241143
Girekol,39.104,43.426,Shield | Shield,213022
Goat Rocks,46.5,-121.4,Composite | Stratovolcano,321801
Golcuk,37.72,30.492,Caldera | Caldera,213801
Golaya,52.263,157.787,Composite | Stratovolcano,300057
Goose Nest,42.788,-122.154,Shield | Shield,322829
Golden Trout Creek,36.358,-118.32,Cluster | Volcanic field,323170
Goosenest,41.722,-122.22,Shield | Shield,323801
Embagai,-2.92,35.83,Caldera | Caldera,222829
Gordon,62.1315,-143.089,Minor | Pyroclastic cone(s),315021
Geodesistov,56.33,158.67,Shield | Shield,300380
Gora Desantnaya,46.192,150.369,Composite | Stratovolcano,290805
Gough Island,-40.32,-9.93,Shield | Shield,386801
Grand Bonhomme,13.22,-61.208,Composite | Stratovolcano,360818
Gran Caldera de Luba,3.3569,8.5089,Caldera | Shield,224002
Feidat el-Mieza,35.843,40.617,Minor | Volcanic field,230801
Hakodateyama,41.757,140.708,Composite | Stratovolcano,285801
Hagen,-5.7465,144.0486,Composite | Stratovolcano(es),253806
Guazapa,13.9,-89.12,Composite | Stratovolcano,343052
Hackamore,41.67,-121.17,Cluster | Volcanic field,323804
"Grande, Cerro",19.62,-97.93,Cluster | Volcanic field,341828
Getsuyo Seamount,29.306,140.471,Composite | Stratovolcano,284087
Guistepeque Volcanic Field,14.5,-89.733,Cluster | Pyroclastic cone(s),342808
Halimun-Talaga,-6.846,106.563,Composite | Stratovolcano,263802
Halimun,-6.72,106.45,Composite | Stratovolcano,263801
Hamiding,1.62,127.82,Composite | Unknown,268800
Hanamagari,36.408,138.649,Composite | Stratovolcano(es),283848
Haneyama,33.228,131.133,Shield | Shield,282814
Halvdan,79.33,13.5,Minor | Explosion crater,377801
"Grande, Cerro",43.45,-112.83,Cluster | Fissure vent(s),324802
Haruj,27.25,17.5,Cluster | Volcanic field,225007
Hanang,-4.43,35.4,Composite | Stratovolcano,222831
Haruman,-7.074,107.943,Minor | Lava dome,263823
Grensdalur,64.02,-21.17,Composite | Stratovolcano,371801
Haungaroa,-32.617,-179.624,Composite | Stratovolcano,241204
Haut Song Be,12.05,107.25,Cluster | Volcanic field,275812
Hautere,-46.572,166.898,Composite | Stratovolcano,241800
Haut Dong Nai,11.617,108.017,Cluster | Volcanic field,275040
"Haylah, Jibal al",18.515,42.051,Minor | Cone,231807
Heibei Plain,38.0,117.5,Unknown | Unknown,305840
Hecar,-23.23,-67.75,Composite | Stratovolcano,355848
Himeshima Volcanic Group,33.718,131.669,Minor | Lava dome(s),282817
Herdubreid,65.18,-16.35,Composite | Tuya,373803
Hinepuia,-26.39,-177.26,Composite | Stratovolcano,242044
Hinetapeka,-28.831,-177.826,Composite | Stratovolcano,242031
Hiva Oa,-9.78,-139.03,Shield | Shield,333800
Hingatungan,10.594,125.101,Composite | Stratovolcano,272805
Hlodufell,64.93,-20.53,Composite | Tuya,371804
Himmat el-Jazira,35.708,39.966,Cluster | Cone(s),230802
Hobitcha Caldera,6.864,37.847,Caldera | Caldera,221293
Hogum Range,56.15,-126.7,Cluster | Volcanic field,320807
Hohi,33.284,131.319,Composite | Stratovolcano(es),282815
Hodakadake,36.286,137.651,Caldera | Caldera,283838
Hokusatsu,31.872,130.608,Minor | Pyroclastic cone,282807
Hotaka,36.802,139.136,Composite | Stratovolcano,283861
Horohoro-Tokushumbetsu,42.631,141.146,Composite | Stratovolcano(es),285813
Hrutfell,64.73,-19.72,Composite | Tuya,371808
Huapinghsu,25.424,121.946,Composite | Stratovolcano,281803
Huambutillo-Rumicola,-13.58,-71.72,Unknown | Unknown,354801
Gemelos-Saladillo,-24.75,-66.17,Minor | Pyroclastic cone(s),355866
Huixian,36.0,115.25,Unknown | Unknown,305835
Hsiaolanyu,21.9529,121.6123,Composite | Compound,274085
Hreppar,64.42,-19.5,Cluster | Fissure vent(s),371810
Huitepec,16.743,-92.694,Minor | Lava dome,341832
"Hule, Cerro de",13.95,-87.23,Shield | Shield,343818
Igualata,-1.49,-78.639,Composite | Stratovolcano,352822
Ialibu,-6.2341,144.0774,Composite | Stratovolcano,253808
Iiji,36.953,138.836,Composite | Stratovolcano,283856
Iizuna,36.736,138.137,Composite | Stratovolcano,283844
Iguan,0.621,-78.007,Composite | Stratovolcano,352806
Ikanmikot,46.964,152.07,Composite | Stratovolcano,290807
Iettunup,58.4,161.08,Shield | Shield(s),300710
Iki Volcanic Group,33.738,129.712,Cluster | Pyroclastic cone(s),282819
Iktunup,58.08,160.77,Shield | Shield(s),300670
Ilalo,-0.259,-78.418,Composite | Stratovolcano,352810
Ilimuda,-8.479,122.761,Composite | Stratovolcano,264170
Ilihan,10.483,125.122,Unknown | Unknown,272801
Imagination Peak,42.552,-122.201,Minor | Pyroclastic cone,322831
Imbing,7.68,123.23,Composite | Stratovolcano(es),271803
Imuta,31.819,130.463,Minor | Lava dome(s),282806
Hulunilo,-2.418,101.776,Composite | Stratovolcano,461839
Imun,2.156,98.934,Minor | Lava cone,261101
Inacalari,-21.981,-68.071,Composite | Stratovolcano,355065
In Teria Volcanic Field,25.0847,8.009,Cluster | Tuff ring(s),225812
Igolki,52.02,156.88,Shield | Shield(s),300813
Inambajima,33.648,139.302,Minor | Lava dome,284802
Inaccessible Island,-37.303,-12.699,Composite | Stratovolcano,386800
Incaguasi,-24.03,-67.53,Unknown | Unknown,355855
Inskip Hill,40.341,-121.943,Minor | Pyroclastic cone(s),323820
Ingrichuak Hills,62.22,-164.3,Minor | Pyroclastic cone(s),314804
Irish Mountain,43.851,-121.975,Shield | Shield,322813
Incapillo,-27.9,-68.8,Caldera | Caldera,355870
Ipala,14.5574,-89.6398,Composite | Stratovolcano,342190
Isau-Isau,-3.967,103.643,Unknown | Unknown,261863
Iblei,37.117,14.821,Shield | Shield?,211820
Isanotski Peaks,54.765,-163.723,Composite | Stratovolcano,311370
Itcha Range,52.667,-124.833,Cluster | Shield,320809
Iult,55.23,160.587,Composite | Stratovolcano,300856
Ixhuatan,14.161,-90.286,Composite | Complex,342805
"Isabel, Isla",21.848,-105.886,Minor | Tuff cone(s),341023
"Izopo, Montaña de",13.92,-87.15,Shield | Shield(s),343817
Itasy Volcanic Field,-19.0306,46.6444,Cluster | Volcanic field,233014
Izumbwe-Mpoli,-8.976,33.38,Minor | Pyroclastic cone(s),222165
Jarvis,62.024,-143.619,Composite | Stratovolcano,315805
Jaishi,34.71,138.786,Shield | Shield,283815
"Jayu Khota, Laguna",-19.463,-67.432,Minor | Maar(s),355035
Jianghui Group,31.95,118.95,Minor | Pyroclastic cone,305801
Jackies Butte,42.606,-117.589,Cluster | Volcanic field,322842
Jatun Mundo Quri Warani,-19.78,-66.48,Minor | Lava dome(s),355036
Jianshan,48.891,125.615,Shield | Shield,305849
Jolo,6.0,121.125,Cluster | Pyroclastic cone(s),270010
Jorcada,-22.08,-67.77,Cluster | Stratovolcano,355835
Jos Plateau,9.5,9.0,Cluster | Volcanic field,224060
Jornada del Muerto,33.53,-106.87,Shield | Shield,327811
Jumbo Dome,63.966,-148.685,Minor | Lava dome,315802
Jumelles-Mwezi Volcanic Field,-12.3014,45.5792,Cluster | Unknown,233030
Jumay Volcanic Field,14.694,-89.993,Composite | Stratovolcano,342811
"Hulu Lais, Bukit",-3.247,102.239,Composite | Compound,261200
Kabara,-18.95,-178.95,Composite | Unknown,245804
"Hutaymah, Harrat",26.98,42.4,Cluster | Volcanic field,231806
Kaileney,57.8,160.67,Shield | Shield,300620
Kaitake,-39.17,173.97,Composite | Stratovolcano,241812
Kaikohe-Bay of Islands,-35.3,173.9,Cluster | Volcanic field,241010
Kahoolawe,20.57,-156.57,Shield | Shield,332801
Kaena,21.822,-158.772,Shield | Shield,332080
Kakuto,32.042,130.767,Caldera | Caldera,282808
Kakepuku,-38.066,175.25,Minor | Lava cone(s),241811
Kaladis,7.58,122.97,Composite | Stratovolcano,271804
Kalama,3.241,125.4635,Composite | Stratovolcano,267036
Kaledong,-7.053,107.908,Minor | Lava dome,263809
Kalatungan,7.95,124.8,Composite | Stratovolcano,271061
Kalgauch,56.93,159.73,Composite | Stratovolcano,300896
Kamen,52.287,157.655,Composite | Stratovolcano,300819
Kamenisty,57.65,160.43,Composite | Stratovolcano,300900
Kaminoroka,36.471,137.599,Unknown | Unknown,283840
Kamitakara,36.2,137.502,Unknown | Unknown,283837
Kancana,-6.897,107.041,Composite | Stratovolcano,263803
Kancana,-7.32,107.63,Composite | Stratovolcano,263814
Kannabe,35.504,134.678,Shield | Shield,283896
Kanpu,39.931,139.879,Composite | Stratovolcano,283888
Kapenga,-38.27,176.27,Caldera | Caldera(s),241817
Karasu Rift,36.767,36.6,Cluster | Volcanic field,213060
Kariba,42.611,139.944,Composite | Stratovolcano,285807
Karimui,-6.57,144.77,Composite | Stratovolcano,253811
Katafaga,-17.52,-178.72,Composite | Unknown,245803
Kasuga 3,21.399,143.626,Composite | Stratovolcano,284144
Katahelu,12.551,41.503,Minor | Cone,221802
Karapinar Monogenetic Field,37.6407,33.5901,Cluster | Volcanic field,213001
Karioi,-37.865,174.802,Composite | Stratovolcano,241809
Karymshina,52.8,158.0,Caldera | Caldera,300087
Kauai,22.07,-159.5,Shield | Shield,332809
Kaula,21.67,-160.55,Shield | Shield,332811
Katete,-9.112,33.746,Composite | Stratovolcano,422827
Kawdy Metah,59.02,-131.15,Cluster | Volcanic field,320804
Kawalusu,4.232,125.329,Composite | Stratovolcano,267070
Kaukab,36.536,40.858,Cluster | Volcanic field,230010
Kayo,39.804,140.734,Composite | Stratovolcano,283884
Kawio Barat,4.675,125.088,Composite | Stratovolcano,267090
Kayo Seamount,29.064,140.537,Composite | Stratovolcano,284088
Kebeney,57.1,159.93,Shield | Shield,300500
Kekurny,56.4,158.85,Shield | Shield(s),300410
Keli Highland,42.45,44.25,Cluster | Pyroclastic cone(s),214040
Kell,51.65,157.35,Composite | Stratovolcano(es),300041
Kembar,3.85,97.664,Shield | Shield,261810
Kenashi,36.895,138.489,Composite | Stratovolcano,283853
Hut Point Peninsula,-77.75,166.75,Cluster | Pyroclastic cone(s),390814
Kendang,-7.245,107.709,Composite | Stratovolcano,263110
Kendeng,-6.768,106.526,Composite | Stratovolcano,263812
Kerewa,-6.02,143.15,Composite | Stratovolcano,253800
Kerimasi,-2.87,35.95,Composite | Stratovolcano,222808
Ketumbeine,-2.88,36.22,Shield | Shield,222807
Keveney,58.05,160.73,Shield | Shield,300905
Kharchinsky,56.425,160.825,Composite | Stratovolcano,300860
Khuvkhoitun,57.92,160.65,Composite | Complex,300904
Kilchu-Myongch'on,41.0,129.7,Cluster | Volcanic field,306800
Khanuy Gol Volcanic Field,48.67,102.75,Cluster | Volcanic field,303020
Kibblewhite,-34.576,179.262,Composite | Stratovolcano,241151
Kilombe Caldera,-0.08,35.83,Caldera | Caldera,222804
Kimitina,55.25,158.18,Composite | Stratovolcano,300872
Kinpo,32.811,130.641,Composite | Stratovolcano,282812
Kinunuma-Nenakusa,36.88,139.375,Minor | Lava dome(s),283863
Kinyo Seamount,28.084,140.802,Composite | Stratovolcano,284089
Kireunsky,56.78,159.75,Shield | Shield,300893
Kitabud,7.285,124.662,Unknown | Unknown,271802
Kobi-sho,25.919,123.682,Composite | Stratovolcano,282800
Klastline Group,57.88,-130.2,Cluster | Pyroclastic cone(s),320806
Kirigamine,36.1,138.2,Shield | Shield,283825
Kobalan,55.43,157.37,Composite | Stratovolcano,300869
Huri Hills,3.5,37.75,Shield | Shield,222802
Kobinai,39.018,140.523,Composite | Stratovolcano,283881
Kilimanjaro,-3.07,37.35,Composite | Stratovolcano,222150
Kogajajima,29.879,129.625,Minor | Lava dome(s),282041
Kistufell,64.781,-17.21,Composite | Tuya,373801
Kitkhoysky,53.584,158.56,Shield | Shield(s),300832
Koil,-3.356,144.208,Composite | Stratovolcano,251805
Kohala,20.08,-155.72,Shield | Shield,332800
Koksan-Singye,38.67,127.42,Shield | Shield,306801
Komochi-Onoko,36.589,139.001,Composite | Stratovolcano(es),283858
Kolob,37.33,-113.12,Cluster | Volcanic field,327800
Kisir Dagi,40.97,43.07,Composite | Unknown,213804
Kolombangara,-7.97,157.08,Composite | Stratovolcano,255805
Konechnaya,55.23,160.97,Shield | Shield,300850
Kookooligit Mountains,63.6,-170.43,Shield | Shield,314050
Koro,-17.32,179.4,Composite | Pyroclastic cone(s),245020
Kopkan,56.48,158.83,Shield | Shield(s),300881
Konradi,55.08,160.53,Composite | Stratovolcano,300851
Kozyrevsky,55.637,158.368,Shield | Shield,300330
Kos,36.852,27.251,Caldera | Caldera(s),212805
Krainy,53.95,159.33,Composite | Stratovolcano,300842
Krugliy,52.16,157.64,Shield | Shield,300816
Krainy,56.37,159.03,Shield | Shield,300400
Kuandian,40.75,124.67,Minor | Pyroclastic cone(s),305855
Kuiwai,-33.159,-179.957,Composite | Stratovolcano,241203
Kuh-e Ayyub Ansar,36.321,47.25,Minor | Lava dome,232803
Kulal,2.75,36.93,Shield | Shield,222800
Kuantan Basalt,3.886,103.365,Minor | Cone,275819
Kulkev,56.37,158.37,Shield | Shield,300370
Kumaneshiri,43.52,143.237,Composite | Stratovolcano(es),285821
Kunkhilok,57.321,160.48,Composite | Stratovolcano,300897
Kunyit,-2.274,101.483,Composite | Stratovolcano,261171
Kumba Volcanic Field,4.608,9.292,Cluster | Volcanic field,224012
Kuntomintar,48.75,154.02,Composite | Stratovolcano,290808
Kurofuji,35.8,138.513,Composite | Stratovolcano(es),283823
Kupol,53.5,158.65,Composite | Stratovolcano,300831
Kurohime,36.81,138.13,Composite | Stratovolcano,283843
Kuril Arc at 45.0°N,45.0166,147.0245,Composite | Stratovolcano,290061
Kurose,33.695,130.233,Unknown | Volcanic remnant,282818
Kuroshima,30.825,129.94,Composite | Stratovolcano,282802
Kuzheten,51.82,157.22,Shield | Shield,300808
Kuzanek,51.93,157.18,Shield | Shield,300811
Kwaraha,-4.23,35.82,Composite | Stratovolcano,222814
Labo,14.02,122.792,Composite | Compound,273804
Laco,-23.818,-67.5,Minor | Lava dome,355854
Koolau,21.37,-157.8,Shield | Shield,332807
La Union Norte Volcanic Field,13.67,-87.82,Cluster | Volcanic field,343806
Kyogatake,36.043,136.625,Composite | Stratovolcano(es),283834
Laguna Caldera,14.42,121.27,Caldera | Caldera,273080
"Lajas, Las",12.3045,-85.7293,Caldera | Caldera,344133
Lambafjoll,65.867,-17.133,Cluster | Fissure vent(s),373809
"Lambuwu, Doro",-8.362,118.497,Composite | Stratovolcano,264836
Lampang,18.3,99.6,Unknown | Unknown,275816
Lanai,20.82,-156.85,Shield | Shield,332804
Langtutkin,58.23,161.1,Shield | Shield,300906
Lasem,-6.68,111.52,Composite | Stratovolcano,263807
Lauchachan,55.35,157.1,Shield | Shield,300867
Latour Butte,40.608,-121.709,Minor | Lava cone,323812
Latukan,7.654,124.438,Composite | Stratovolcano,271050
Lava Mountain,43.472,-120.754,Cluster | Volcanic field,322130
Lava Butte,43.001,-117.422,Shield | Shield(s),322838
"Larancagua, Volcan",-18.02,-69.08,Composite | Stratovolcano,355810
Lava Mountains Volcanic Field,35.5,-117.5,Minor | Lava dome(s),323824
Lavic Lake,34.75,-116.625,Cluster | Volcanic field,323190
Leizhou Bandao,20.78,110.17,Cluster | Volcanic field,275010
"Leon, Cerro",30.227,-114.655,Minor | Cone,341800
Lenderut,-2.095,36.285,Caldera | Caldera,422820
Lejia,-23.555,-67.764,Composite | Stratovolcano,355852
"Leon, Cerro del",-22.142,-68.108,Composite | Stratovolcano(es),355832
Little Hungarian Plain,47.192,17.2,Cluster | Volcanic field,210806
Linosa,35.87,12.87,Minor | Pyroclastic cone(s),211821
Lipang,3.911,125.39,Composite | Stratovolcano,267060
"Linzor, Volcan",-22.18,-67.95,Composite | Stratovolcano,355834
Likuruanga,-4.953,151.385,Composite | Stratovolcano,252804
Lereboleng,-8.365,122.833,Composite | Complex,264200
Livingston-Greenwich Islands,-62.52,-60.02,Minor | Tuff cone(s),390827
"Limones Volcanic Field, Los",14.05,-89.13,Minor | Pyroclastic cone(s),343802
Lihir,-3.1222,152.6,Composite | Compound,254010
Little Barrier,-36.197,175.078,Composite | Stratovolcano,241804
Llimpi,-1.381,-78.572,Composite | Stratovolcano,352819
Lobi,11.013,124.812,Composite | Stratovolcano,272806
Loman Volcano Group,33.33,67.85,Minor | Lava dome(s),232810
"Lolotique, Cerro",13.559,-88.364,Unknown | Unknown,343815
Logudoro,40.58,8.67,Cluster | Volcanic field,211815
Llancanelo Volcanic Field,-35.75,-69.25,Cluster | Pyroclastic cone(s),357803
Loolmalasin,-3.052,35.817,Composite | Unknown,222809
Losloyo,-23.13,-67.37,Composite | Stratovolcano,355846
Longhai,24.5,117.5,Unknown | Unknown,305832
Lotomgan Group,-5.22,150.07,Minor | Pyroclastic cone(s),252812
Lost Lake Butte,45.496,-121.796,Shield | Shield,322802
Lubuk Raya,1.478,99.209,Composite | Stratovolcano,261111
Lucaret Basalts,45.826,21.69,Cluster | Fissure vent,210804
Lower Chindwin,22.28,95.1,Cluster | Volcanic field,275090
Lyzyk,57.23,161.52,Minor | Unknown,300863
Long Valley,37.7,-118.87,Caldera | Caldera,323822
Mabda,13.508,41.779,Minor | Lava dome,221109
Lyngdalsheidi,64.15,-20.9,Shield | Shield,371802
Madarao,36.834,138.278,Composite | Stratovolcano,283842
Maer Volcanic Province,-9.717,143.833,Cluster | Pyroclastic cone(s),259800
Magee Peak,40.698,-121.619,Composite | Stratovolcano,323809
Maclaren River Volcanic Field,63.1369,-146.32,Minor | Volcanic field,315100
Mabudis-Siayan,20.9174,121.9107,Composite | Compound,274075
Maderas,11.446,-85.515,Composite | Stratovolcano,344130
Mago,-17.45,-179.15,Minor | Pyroclastic cone(s),245802
Mahukona,20.17,-156.42,Minor | Cone,332802
Mahagnao,10.8805,124.8651,Composite | Stratovolcano,272070
Maiden Peak,43.627,-121.965,Shield | Shield(s),322819
"Maichín, Cerro",-39.35,-71.55,Composite | Stratovolcano,357812
Maidu,40.3,-121.62,Composite | Stratovolcano,323819
Malabar,-7.132,107.639,Composite | Stratovolcano,263081
Malepunyo,13.9615,121.2468,Composite | Stratovolcano,273807
Malinao,13.416,123.608,Composite | Stratovolcano,273801
Malaya Ipelka,52.28,156.73,Composite | Complex,300818
Malang Plain,-8.067,112.733,Cluster | Maar(s),263292
Malaya Ketepana,56.68,158.47,Shield | Shield,300884
Malindig,13.24,122.018,Composite | Stratovolcano,273044
Malindang,8.22,123.63,Composite | Stratovolcano,271071
Malutut,-14.371,-170.174,Composite | Stratovolcano,244023
Maly Alney,56.47,159.77,Composite | Stratovolcano(es),300890
Maly Chekchebonay,56.8,159.45,Shield | Shield,300891
Mandalagiri,-7.4,107.78,Composite | Stratovolcano,263815
Mamuya,1.7825,127.9182,Composite | Cone,268015
Malpaisillo,12.58,-86.6,Unknown | Pyroclastic shield,344801
Manengouba,5.03,9.83,Composite | Stratovolcano,224020
Mangakino,-38.35,175.75,Caldera | Caldera,241818
Maninjau,-0.35,100.2,Caldera | Caldera,261817
Marble Mountain,46.109,-122.129,Shield | Shield,321802
Mandalagan,10.65,123.25,Composite | Complex,272030
"Maria, Doro",-8.483,118.924,Unknown | Unknown,264837
"Marinaqui, Laguna",-38.301,-71.108,Minor | Pyroclastic cone(s),357092
Maripipi,11.8,124.33,Unknown | Unknown,272804
Martimbang,1.96,98.968,Composite | Stratovolcano,261816
Mariveles,14.527,120.482,Composite | Stratovolcano,273081
Martin Vaz,-20.47,-28.85,Composite | Stratovolcano,385801
Maroa,-38.42,176.08,Caldera | Caldera(s),241061
Masahuat Volcanic Field,14.2,-89.4,Composite | Stratovolcano,343800
Mashkovtsev,51.1,156.72,Composite | Stratovolcano,300001
Masaraga,13.3099,123.5978,Composite | Stratovolcano,273031
Mason Spur,-78.58,164.37,Cluster | Lava dome(s),390818
Masugata,37.075,138.833,Minor | Pyroclastic cone,283857
Masurai,-2.503,101.858,Composite | Stratovolcano,261819
Matarem,20.38,121.93,Composite | Compound,274800
Maungatautari,-38.019,175.576,Composite | Stratovolcano,241823
Mauritius,-20.32,57.65,Shield | Shield,233803
McCoy,39.97,-106.7,Minor | Pyroclastic cone(s),328800
Mbareke,-8.55,158.07,Composite | Stratovolcano,255807
McLoughlin,42.445,-122.315,Composite | Stratovolcano,322834
Mclean Volcanic Province,-15.87,144.83,Cluster | Pyroclastic cone(s),259802
Medaw Island,11.72,98.67,Cluster | Fissure vent(s),275820
"Meanguera, Isla",13.19,-87.72,Composite | Stratovolcano(es),343816
Melintang,-0.32,100.67,Composite | Stratovolcano,261859
Merbuk,-8.226,114.653,Unknown | Unknown,264830
Mere Lava,-14.4585,168.04,Composite | Stratovolcano,257021
Mienhuayu,25.484,122.106,Composite | Stratovolcano,281804
Mezhdusopochny,57.47,160.25,Shield | Shield,300570
Mikura Seamount,33.725,139.408,Composite | Stratovolcano,284043
Mikeno,-1.463,29.419,Composite | Stratovolcano,223800
"Mercedes, Cerro las",10.97,-84.35,Minor | Pyroclastic cone,345805
Merig,-14.32,167.8,Composite | Stratovolcano,257802
Mineral Mountains-Cove Fort,38.58,-112.67,Cluster | Volcanic field,327801
Minakami,36.551,138.226,Minor | Lava dome,283846
Mispia,16.447,-92.539,Minor | Lava dome(s),341833
Miscanti,-23.67,-67.72,Composite | Stratovolcano,355853
"Moiro, Cerro",-21.68,-67.47,Minor | Pyroclastic cone,355828
Moctezuma Volcanic Field,29.63,-109.52,Cluster | Volcanic field,341806
Mostyn,4.6,118.18,Cluster | Fissure vent(s) ?,269814
Mota,-13.85,167.68,Composite | Stratovolcano,257801
Motodori,36.717,138.247,Minor | Lava dome,283845
Mountain Lakes,42.32,-122.08,Cluster | Volcanic field,322841
Mountain Home-Kuna Lava Field,43.2,-115.98,Minor | Pyroclastic cone(s),324801
Moekeshiwan [Lvinaya Past],44.608,146.994,Caldera | Stratovolcano,290041
Mrit-Ment Volcanic Field,33.47,-2.97,Cluster | Volcanic field,225815
Mukaimachi,38.75,140.52,Caldera | Caldera,283878
Mundua,-4.624,149.339,Composite | Complex,252021
Murray,-6.75,144.02,Composite | Stratovolcano,253809
Mutny,57.72,160.37,Shield | Shield,300903
Musa,43.676,144.886,Composite | Stratovolcano(es),285826
Mutsu-Hiuchidake,41.436,141.056,Composite | Stratovolcano,283892
Naeba,36.843,138.694,Composite | Stratovolcano,283855
Nairai,-17.8,179.42,Composite | Complex,245800
Nanashigure,40.066,141.109,Minor | Lava dome,283889
Nama Salah,4.65,96.78,Unknown | Unknown,261806
"Nanti, Bukit",-4.2,103.85,Unknown | Unknown,261864
Moutohora Island,-37.855,176.974,Composite | Complex,241815
Nader,28.17,60.67,Cluster | Volcanic field,232040
Natib,14.72,120.4,Composite | Stratovolcano,273082
Murphy,-75.37,-110.67,Shield | Shield,390824
Muria,-6.62,110.88,Composite | Stratovolcano,263251
"Napa, Cerro",-20.52,-68.68,Composite | Stratovolcano,355820
Namyong,25.68,96.43,Cluster | Fissure vent(s),275823
Nemours-Nedroma,35.07,-2.0,Cluster | Volcanic field,225804
"Nevada, Sierra",-38.58,-71.58,Composite | Stratovolcano,357808
"Navajas, Las",21.531,-104.729,Shield | Shield,341811
"Nevado, Cerro",-35.58,-68.489,Cluster | Volcanic field,357806
"Negro, Cerro",10.462,-83.855,Shield | Shield,345806
Ngaoundere Plateau,7.25,13.67,Cluster | Volcanic field,224040
Ngatoroirangi,-33.729,179.827,Composite | Stratovolcano,241201
Nevsehir-Acigol Volcanic Complex,38.537,34.621,Cluster | Complex,213004
"Neiges, Piton des",-21.08,55.48,Shield | Shield,233802
Ngorongoro,-3.17,35.57,Caldera | Caldera,222811
"Niebla, Cerro de la",-25.25,-68.63,Composite | Compound,355858
Nekoma,37.617,140.011,Composite | Stratovolcano,283870
Nggatokae,-8.78,158.18,Composite | Stratovolcano,255809
Nelangaapan,9.932,125.27,Unknown | Unknown,272800
Nigorikawa,42.12,140.45,Caldera | Caldera,285805
Negros de Aras,-24.18,-68.25,Cluster | Pyroclastic cone(s),355106
Niseikaushuppe,43.777,142.989,Composite | Stratovolcano,285818
Nonda,-7.67,156.6,Composite | Stratovolcano,255803
Noro,35.41,133.182,Minor | Pyroclastic cone,283808
Niuatoputapu,-15.956,-173.782,Composite | Stratovolcano,243103
North Kawio,4.684,125.468,Composite | Complex,267075
Northeast Bank,-14.061,-170.084,Composite | Stratovolcano,244011
Northeast Shepherd Islands,-17.0007,168.636,Composite | Stratovolcano(es),257080
Northern Atenguillo,20.75,-104.5,Cluster | Shield(s),341817
Northern Centres,17.508,-62.992,Composite | Stratovolcano(es),360806
Niihau,21.95,-160.08,Shield | Shield,332810
Northern Efate,-17.6167,168.3792,Cluster | Stratovolcano(es),257804
Northern Guadalajara Mesa,20.88,-103.4,Cluster | Lava dome(s),341819
Northern Matas,-15.005,-173.793,Cluster | Volcanic field,243132
Niua Volcanic Complex,-15.122,-173.549,Composite | Complex,243150
Northwest Shepherd Islands,-17.063,168.381,Composite | Complex,257806
Nulla Volcanic Province,-19.82,145.08,Cluster | Shield(s),259807
Nosy Be,-13.3233,48.2894,Cluster | Volcanic field,233012
Numa Numa,-6.02,155.192,Composite | Stratovolcano,255801
Numanokami,36.772,139.279,Composite | Stratovolcano,283860
Nunivak Island,60.02,-166.33,Cluster | Shield,314020
Nuomin,49.617,123.717,Cluster | Pyroclastic cone(s),305847
Nanzaki,34.604,138.832,Minor | Pyroclastic cone,283814
Northern Tongariro Group,-38.98,175.7,Composite | Stratovolcano(es),241819
Nushan,33.12,118.75,Minor | Cone,305802
Nyoho-Akanagi,36.808,139.54,Composite | Stratovolcano,283864
Obiglio,-74.458,-131.848,Minor | Pyroclastic cone,390821
Napo Taroare,4.048,125.345,Composite | Stratovolcano,267065
Ocate,36.12,-104.75,Cluster | Volcanic field,327819
"Nyokie, Ol Doinyo",-1.8,36.38,Minor | Tuff cone,222805
Nyuto-Takakura,39.802,140.842,Composite | Stratovolcano(es),283885
Oetakayama,35.061,132.431,Minor | Lava dome(s),283806
Ochchamo,55.62,158.15,Shield | Shield,300874
Ogino-Sen,35.437,134.444,Minor | Pyroclastic cone(s),283812
Ojikajima,33.199,129.051,Shield | Shield(s),282810
Ok,64.62,-20.88,Shield | Shield,371806
Northern Mendoza Volcanic Field,-34.67,-69.0,Cluster | Volcanic field,357802
Okushiri-Katsumayama,42.193,139.468,Shield | Shield,285806
Oliver-Speight,-32.388,-179.591,Composite | Complex,241205
Olallie Butte,44.82,-121.75,Shield | Shield(s),322804
Narage,-4.547,149.113,Composite | Stratovolcano,252801
Nograd-Southern Slovakia,48.159,19.79,Cluster | Volcanic field,210807
Olim,5.2,96.18,Cluster | Fissure vent(s),261801
Ollague,-21.3,-68.18,Composite | Stratovolcano,355060
Nosichan,56.08,157.75,Shield | Shield,300879
Onnebetsu,43.991,145.017,Composite | Stratovolcano,285829
Oricola-Carsoli,42.15,13.08,Cluster | Pyroclastic cone(s),211807
"Ora, Doro",-8.75,119.67,Unknown | Unknown,264841
Onoharajima,34.045,139.387,Minor | Lava dome,284801
Orofure-Raiba,42.563,141.091,Composite | Stratovolcano(es),285812
Oshima Maruyama,41.54,140.375,Composite | Stratovolcano,285800
Oshima-Kojima,41.355,139.811,Composite | Stratovolcano,285839
Otdelniy,52.221,157.435,Shield | Pyroclastic cone(s),300056
Ostanets,52.146,157.322,Shield | Shield(s),300055
Oto Group,-5.558,150.407,Composite | Stratovolcano(es),252803
"Otota, Doro",-8.72,119.42,Unknown | Unknown,264840
Oulmes Volcanic Field,33.33,-6.0,Cluster | Volcanic field,225802
Ovalny,56.98,158.98,Shield | Shield,300887
Oujda Volcanic Field,34.53,-3.3,Cluster | Volcanic field,225814
Nichiyo Seamount,29.482,140.327,Composite | Stratovolcano,284086
"Overo, Cerro",-23.52,-67.662,Minor | Maar,355097
Oki-Dogo,36.176,133.334,Unknown | Shield,283003
Oyma,12.88,41.62,Composite | Stratovolcano,221800
Ozernoy,51.88,157.38,Shield | Shield,300051
Paama Island,-16.47,168.23,Composite | Complex,257803
Pacdahauan,11.404,124.509,Unknown | Unknown,272807
Pailin,12.9,102.6,Unknown | Unknown,275808
Paco-Maniayao,9.593,125.52,Composite | Stratovolcano,271090
Pambamarca,-0.076,-78.207,Composite | Stratovolcano,352807
Pampa Luxsar,-20.85,-68.2,Cluster | Volcanic field,355042
Pan de Azucar,-0.43,-77.72,Composite | Stratovolcano,352812
Panay,13.723,120.893,Composite | Stratovolcano,273806
Pandan,-7.4592,111.7997,Composite | Cone,263275
Paniri,-22.059,-68.228,Composite | Stratovolcano,355831
Okiura,40.57,140.73,Caldera | Caldera,283891
Patas,-8.261,114.817,Unknown | Unknown,264831
Omeshidake,36.626,138.461,Composite | Stratovolcano,283850
"Patos, Los",-27.27,-69.0,Composite | Stratovolcano,355863
Papayo,19.308,-98.7,Minor | Lava dome,341081
Pasochoa,-0.462,-78.478,Composite | Stratovolcano,352811
Patilla Pata,-18.05,-69.03,Composite | Stratovolcano,355808
Pelican Butte,42.52,-122.13,Shield | Shield,322833
"Pantoja, Cerro",-40.768,-71.943,Composite | Stratovolcano,357152
"Pedregal, El",14.1,-87.27,Shield | Shield,343820
Perevalovyi,56.57,159.35,Shield | Shield,300889
"Perdidos, Los",10.403,-84.675,Caldera | Caldera,345802
Perevalny,52.13,157.78,Shield | Shield,300815
Persani Mountains,45.982,25.339,Cluster | Volcanic field,210802
Pengchiahsu,25.63,122.08,Composite | Stratovolcano,281805
Pesawaran-Ratai,-5.505,105.093,Composite | Stratovolcano,261285
Peter I Island,-68.85,-90.58,Shield | Shield,390029
Pesagi,-4.9233,104.1462,Unknown | Unknown,261821
Piebald Volcanic Province,-15.23,145.03,Cluster | Shield(s),259801
Phoenix Segment,41.404,-127.38,Cluster | Fissure vent,331034
Petacas,1.6215,-76.8425,Minor | Lava dome,351062
Onikobe,38.83,140.695,Caldera | Caldera,283879
Piedra Parada,-26.4,-68.75,Composite | Stratovolcano,355860
Piip,55.319,160.667,Shield | Shield,300849
Piedra Grande,14.25,-90.4,Composite | Stratovolcano(es),342804
Pinto Basin-Salton Creek,33.9,-115.63,Cluster | Volcanic field,323827
Pilavo,0.526,-78.365,Composite | Stratovolcano,352801
Pinzon,-0.6,-90.68,Shield | Shield,353803
Pirozhnikova,57.53,160.339,Composite | Stratovolcano,300899
Piratkovsky,52.113,157.849,Composite | Stratovolcano,300054
Pino Hachado,-38.679,-70.814,Caldera | Caldera,357809
Pitcairn,-25.068,-130.113,Shield | Shield,333808
Pirongia,-37.993,175.098,Composite | Stratovolcano,241810
Plosky,55.1865,158.4784,Shield | Shield,300310
Ploskiy,52.37,157.62,Composite | Stratovolcano,300820
Pleiku-Bantour Volcanic Field,13.85,108.1,Cluster | Cone(s),275805
"Piuquenes, Nevado de los",-33.52,-69.83,Composite | Stratovolcano,357801
Plosky,57.83,160.25,Shield | Shield,300630
Pocdol Mountains,13.05,123.958,Composite | Compound,273020
Pogranychny,56.85,159.8,Shield | Shield(s),300470
Poco Leok,-8.68,120.48,Composite | Stratovolcano,264070
Polino,42.57,12.82,Minor | Explosion crater(s),211805
"Poco Sol, Laguna",10.35,-84.67,Minor | Explosion crater(?),345803
Poquis,-23.02,-67.05,Composite | Stratovolcano,355844
Pontine Islands,40.9,12.95,Minor | Lava dome(s),211814
Poros,37.48,23.43,Cluster | Fissure vent,212803
Pomare,-16.7241,168.2852,Composite | Stratovolcano,257061
Porquesa,-19.958,-68.73,Minor | Lava dome(s),355819
Potato Butte,40.63,-121.43,Cluster | Shield(s),323811
Poyo,19.223,145.524,Composite | Stratovolcano,284152
Pouakai,-39.23,174.02,Composite | Stratovolcano,241813
Potor,-23.2,-67.67,Composite | Stratovolcano,355847
Porr,2.9,36.55,Minor | Pyroclastic cone,222828
Potrillo Volcanic Field,31.98,-107.13,Cluster | Pyroclastic cone(s),327810
Poza Rica,20.42,-97.83,Cluster | Volcanic field,341829
Prindle,63.716,-141.634,Minor | Pyroclastic cone,315800
"Primavera, Sierra la",20.62,-103.52,Caldera | Caldera,341820
Psathoura,39.5,24.18,Minor | Lava dome,212800
Prodolny,55.45,157.25,Shield | Shield(s),300868
Puelche Volcanic Field,-35.78,-70.48,Cluster | Volcanic field,357804
"Pucara, Cerro",-16.236,-69.471,Cluster | Volcanic field,355807
Pueblo Nuevo Viñas,14.199,-90.505,Composite | Stratovolcano,342803
Pulau Weh,5.82,95.28,Composite | Stratovolcano,261800
Pumpan,-18.85,169.12,Composite | Stratovolcano,257807
"Pulpito, Punta",26.517,-111.444,Minor | Lava dome,341804
Punikan,-8.47,116.13,Unknown | Unknown,264834
Putoto,-27.857,-177.621,Composite | Stratovolcano,242040
"Puntas, Cerro",-0.174,-78.2,Composite | Stratovolcano,352809
"Purupuruni, Cerros",-17.2587,-69.8216,Minor | Lava dome(s),354804
Putzalagua,-0.962,-78.56,Minor | Lava dome,352817
Puyo,-1.459,-77.917,Minor | Pyroclastic cone(s),352820
"Putri, Gunung",-7.269,107.973,Minor | Lava dome,263160
"Qiranah, Jabal al",30.73,35.75,Cluster | Volcanic field,430815
Quartz Mountain,43.629,-120.899,Minor | Lava dome,322824
Qal'eh Hasan Ali,29.375,57.55,Cluster | Maar(s),232020
Olmoti,-3.0,35.65,Caldera | Caldera,222830
Quetena,-22.25,-67.42,Cluster | Fissure vent,355836
Quesnel Cone Group,52.5,-121.17,Minor | Pyroclastic cone(s),320817
"Queva, Nevado",-24.309,-66.732,Unknown | Unknown,355864
Radicofani,42.899,11.769,Minor | Volcanic remnant,211801
"Quindio, Nevado del",4.701,-75.386,Composite | Stratovolcano,351801
Rabida,-0.413,-90.708,Minor | Lava dome(s),353802
Raiden,42.901,140.473,Composite | Stratovolcano(es),285809
Quinchilca,-39.68,-72.008,Composite | Stratovolcano(es),357813
"Rahah-'Uwayrid, Harrat ar",27.408,37.279,Cluster | Volcanic field,231015
Raja-Sabanda,-2.228,101.43,Unknown | Unknown,461838
Raja,-4.83,104.08,Unknown | Unknown,261820
Rainbow Mountain,41.474,-121.956,Composite | Stratovolcano,323803
Rakahore,-26.81,-177.4,Composite | Stratovolcano,242043
Rajabasa,-5.7803,105.6314,Composite | Stratovolcano,261290
Ramu-Labumbu,-8.416,118.207,Unknown | Unknown,464807
Rakkibetsudake [Demon],45.501,148.8608,Composite | Stratovolcano,290110
Rarotonga,-21.23,-159.75,Shield | Shield,333806
Raton-Clayton,36.42,-104.08,Cluster | Volcanic field,327820
Rapuhia,-34.776,178.505,Composite | Stratovolcano,241142
Razlaty,54.02,159.38,Composite | Stratovolcano,300843
Red Top Mountain,43.51,-122.03,Shield | Shield(s),322820
Red Lake Mountain,40.571,-121.594,Minor | Pyroclastic cone,323814
Rekkame Volcanic Field,33.17,-3.33,Cluster | Explosion crater(s),225803
Rendova,-8.47,157.33,Composite | Stratovolcano,255806
"Redondo, Cerro",14.263,-89.6093,Shield | Shield(s),342813
Ringgit,-7.72,113.85,Composite | Stratovolcano,263808
Reporoa,-38.42,176.33,Caldera | Caldera,241060
"Reforma, La",27.508,-112.392,Caldera | Caldera,341803
"Rio Negro, Cerro de",-23.398,-67.582,Composite | Stratovolcano,355850
Rio Murta,-46.17,-72.708,Minor | Pyroclastic cone(s),358058
Roca Redonda,0.27,-91.63,Shield | Shield,353807
"Rittmann, Mount",-73.45,165.5,Shield | Shield,390812
Roccamonfina,41.3,13.93,Composite | Stratovolcano,211811
Rochaculla-Inca Camacha,-18.8,-68.3,Composite | Stratovolcano(es),355815
Rodriguez Island,-19.7,63.42,Shield | Shield,233804
Rodderberg,50.62,7.2,Minor | Pyroclastic cone,210813
Romanovka,55.65,158.8,Composite | Stratovolcano,300340
Rota,12.55,-86.75,Composite | Stratovolcano,344060
Rucharu [Golets-Tornyi Group],45.25,148.3,Minor | Pyroclastic cone(s),290091
Rudakov,45.8719,149.8233,Composite | Stratovolcano,290112
Ruminahui,-0.578,-78.504,Composite | Stratovolcano,352814
Rungapapa Knoll,-37.547,176.98,Minor | Cone,241821
Sabinyo,-1.388,29.592,Composite | Stratovolcano,223801
Robinson Crusoe,-33.658,-78.85,Shield | Shield(s),356020
Sabatini Complex,42.17,12.22,Composite | Stratovolcano(es),211809
Sabalan,38.268,47.835,Composite | Stratovolcano,232002
SW Usangu Basin,-8.75,33.8,Cluster | Lava dome(s),222163
"Saboke, Doro",-8.68,119.12,Unknown | Unknown,264838
Rotorua,-38.08,176.27,Caldera | Caldera,241816
Sadiman,-3.18,35.42,Composite | Stratovolcano,222810
Ryohaku Maruyama,36.046,136.8,Composite | Stratovolcano,283832
Rumble II East,-35.418,178.652,Composite | Stratovolcano,241129
Saddle Butte,43.0,-117.8,Cluster | Volcanic field,322837
Sagoatoa,-1.151,-78.666,Composite | Stratovolcano,352818
"Sajama, Nevado del",-18.1,-68.88,Composite | Stratovolcano,355809
Sahand,37.75,46.43,Composite | Stratovolcano,232001
Salas y Gomez,-26.47,-105.47,Shield | Shield?,356800
Salina,38.58,14.85,Composite | Stratovolcano(es),211816
Samakkenupuri,43.681,144.736,Composite | Stratovolcano,285825
"San Agustin, Cerro",-21.25,-67.75,Composite | Stratovolcano,355824
San Augustin-Isnos,1.92,-76.23,Cluster | Volcanic field,351808
San Carlos,33.25,-110.25,Cluster | Volcanic field,329803
Rurutu,-22.45,-151.35,Shield | Shield,333807
San Diego,14.27,-89.48,Cluster | Volcanic field,343001
San Francisco,-26.919,-68.263,Composite | Stratovolcano,355861
San Diego,5.65,-74.961,Minor | Maar,351001
San Juan,18.87,-71.33,Minor | Pyroclastic cone(s),360802
San Felix,-26.294,-80.112,Shield | Shield,356010
San Martin Pajapan,18.303,-94.73,Composite | Stratovolcano(es),341830
"San Jacinto, Cerro",12.37,-86.02,Composite | Stratovolcano,344803
Runcing,-1.755,101.627,Unknown | Unknown,261862
San Ignacio Volcanic Field,27.633,-113.05,Cluster | Volcanic field,341801
San Juan,21.47,-104.97,Composite | Stratovolcano(es),341810
San Pedro,14.656,-91.267,Composite | Stratovolcano,342810
San Sebastian Volcanic Field,20.83,-104.82,Cluster | Pyroclastic cone(s),341815
San Venanzo,42.862,12.266,Minor | Maar,211803
"San Miguel, Cerro",10.022,-84.708,Minor | Lava dome,345804
San Pedro-San Pablo,-21.888,-68.391,Composite | Stratovolcano(es),355070
Sangay,13.52,123.53,Unknown | Unknown,273802
Sanggabuana,-6.58,107.22,Composite | Stratovolcano,263813
Sangenges,-8.58,117.122,Composite | Stratovolcano,264843
Sanford,62.213,-144.13,Shield | Shield,315010
San Quintin Volcanic Field,30.467,-116.012,Cluster | Pyroclastic cone(s),341002
Santa Clara,37.257,-113.625,Cluster | Volcanic field,327010
Santa Cruz,-0.648,-78.631,Composite | Stratovolcano,352816
Santa Maria del Oro,21.371,-104.571,Minor | Maar,341812
Santo Antao,17.07,-25.17,Composite | Stratovolcano,384800
Santo Tomas,16.33,120.55,Composite | Stratovolcano,273086
Santo Domingo Volcanic Field,22.83,-100.08,Cluster | Maar(s),341808
Sao Nicolau,16.62,-24.35,Composite | Stratovolcano,384801
Santa Fe,-0.806,-90.07,Shield | Shield,353804
Santo Tomas-Zunil,14.71,-91.479,Composite | Stratovolcano(es),342800
San Pedro,21.17,-104.73,Caldera | Caldera,341814
Santa Rosa,4.8,-75.458,Shield | Shield,351800
Sapporo,42.898,141.204,Shield | Shield,285815
Sara Sara,-15.3299,-73.4456,Composite | Stratovolcano,354002
Sao Vicente,16.85,-24.97,Composite | Stratovolcano,384030
Saray,37.861,45.477,Minor | Unknown,232003
Satah Mountain,52.417,-124.617,Cluster | Volcanic field,320130
Sarik-Gajah,0.074,100.189,Minor (Silicic) | Pyroclastic cone(s),261131
Sao Tome,0.2,6.58,Shield | Shield,224001
Satsuma Maruyama,31.799,130.411,Minor | Lava dome,282805
Savan,52.21,157.28,Shield | Shield,300817
Savonovski River Cluster,58.55,-154.5,Composite | Stratovolcano(es),312806
Sawal,-7.18,108.27,Composite | Stratovolcano,263820
Scott Mountain,44.241,-121.915,Shield | Shield,322809
Schmidt,54.92,160.63,Shield | Shield,300201
Sedakeling,-7.12,108.03,Composite | Stratovolcano,263819
Seamount JF6,-33.427,-76.87,Minor | Lava dome?,356040
Sekincau Belirang,-5.107,104.317,Composite | Caldera(s),261260
Selawik Hills,66.033,-160.067,Cluster | Pyroclastic cone(s),314805
Sekita,36.974,138.386,Composite | Stratovolcano?,283852
Selokaki,-7.83,112.35,Composite | Stratovolcano,263821
Sellandafjall,65.42,-17.03,Composite | Tuya,373804
Seal Nunataks Volcanic Field,-65.03,-60.05,Cluster | Pyroclastic cone(s),390050
Sendai,31.731,130.451,Minor | Pyroclastic cone,282804
"Sembuang, Gunung",4.62,97.42,Minor | Explosion crater,261808
Sengoku,34.186,131.76,Minor | Lava dome(s),283803
Seraja,-8.377,115.654,Unknown | Unknown,264833
Sentinel Plain,32.8,-113.2,Cluster | Volcanic field,329801
Sergief,52.05,-174.95,Composite | Stratovolcano,311150
Septentrional Chain,16.23,-61.72,Minor | Lava dome(s),360809
Seulawah Inong,5.43,95.77,Unknown | Unknown,261858
Shahsavaran,28.152,59.281,Cluster | Volcanic field,232808
Shamiram Plateau,40.2,44.15,Cluster | Volcanic field,214803
Seulawah Agam,5.4472,95.6555,Composite | Stratovolcano,261020
Shari,43.763,144.722,Composite | Stratovolcano,285827
Sheldon-Antelope,41.8,-119.1,Cluster | Volcanic field,326810
Shepard Island,-74.424,-132.55,Minor | Tuff cone(s),390822
Shestakov,49.4824,154.7589,Composite | Stratovolcano,290809
Shirataka,38.22,140.176,Composite | Stratovolcano,283872
Shikaribetsu Group,43.267,143.1,Cluster | Lava dome(s),285062
Shiitokoro,43.61,143.184,Minor | Lava dome,285820
Shiribetsu,42.767,140.916,Composite | Stratovolcano,285811
Shikuma,34.098,131.761,Minor | Lava dome(s),283801
Shiretoko,44.23,145.278,Composite | Stratovolcano,285830
Shirouma-Oike,36.786,137.802,Composite | Stratovolcano(es),283841
Shishel,57.45,160.37,Shield | Shield,300580
Shlen,57.48,159.57,Shield | Shield,300898
Shombole,-2.131,36.1,Minor | Cone,422821
Sigurd,79.17,13.5,Minor | Explosion crater,377800
Silay,10.7701,123.233,Composite | Stratovolcano,272040
Sibualbuali,1.556,99.255,Composite | Stratovolcano,261110
Sifford Mountain,40.416,-121.412,Shield | Shield,323818
Siete Orejas,14.82,-91.62,Composite | Stratovolcano,342809
Silver Creek,43.4,-119.5,Cluster | Volcanic field,322836
Silent II West,-35.169,178.902,Composite | Stratovolcano,241134
"Sierpe, Lomas de",10.376,-83.545,Shield | Shield(s),345809
"Simacak, Uruk",3.237,98.433,Composite | Stratovolcano,261823
Silent II East,-35.21,178.978,Composite | Stratovolcano,241135
Silver Hills,16.81,-62.194,Minor | Lava dome(s),360807
Simcoe,46.1,-120.9,Cluster | Volcanic field,321803
Silver Lake Volcanic Field,40.731,-121.841,Cluster | Volcanic field,323050
Sincholagua,-0.534,-78.371,Composite | Stratovolcano,352813
Simbolon,3.02,98.9,Composite | Stratovolcano,261814
Sinker Butte,43.25,-116.62,Shield | Shield,324800
Smelter Knolls,39.434,-112.857,Minor | Lava dome(s),327802
Snegovoy,58.2,160.97,Shield | Shield,300690
Siple,-73.43,-126.67,Shield | Shield,390025
Skalistiy,52.02,157.18,Shield | Shield,300814
Sisa,-6.13,142.73,Composite | Stratovolcano,253801
Skalistiy,53.6266,159.2912,Unknown | Unknown,300834
Snezhniy,58.02,160.8,Shield | Shield,300660
Snoul,12.1,106.4,Unknown | Unknown,275811
Singu Plateau,22.7,95.98,Cluster | Fissure vent(s),275100
Skookum Creek,62.4,-143.147,Cluster | Lava dome(s),315809
Snow Mountain,40.763,-121.798,Composite | Stratovolcano,323808
Sone,33.053,129.083,Minor | Pyroclastic cone,282809
South Auckland,-37.37,174.92,Cluster | Shield(s),241802
Soso,-13.764,-170.235,Composite | Stratovolcano,244012
South Harghita Mountains,46.13,25.88,Minor | Lava dome(s),210801
Solimana,-15.4,-72.9,Composite | Stratovolcano,354803
Sordo Lucas,-34.987,-70.456,Composite | Stratovolcano,357805
Southern Guadalajara,20.525,-103.242,Cluster | Volcanic field,341821
South Daikoku,21.023,144.525,Composite | Stratovolcano,284146
Sprague River Valley,42.5,-121.5,Cluster | Shield(s),322832
Springerville Volcanic Field,34.192,-109.629,Cluster | Volcanic field,329802
Southern Shepherd Islands,-17.2525,168.4245,Composite | Stratovolcano,257810
Squamish,49.65,-123.22,Cluster | Volcanic field,320812
St. George,56.58,-169.58,Cluster | Volcanic field,314800
Steamboat Springs,39.375,-119.72,Minor | Lava dome(s),326801
Strutur,63.839,-18.932,Composite | Tuya,372800
Sturgeon Volcanic Province,-20.35,144.25,Shield | Shield(s),259808
Suaru,-6.25,144.83,Composite | Stratovolcano,253810
Sugarloaf,-5.8206,143.8089,Cluster | Volcanic field,253805
Sukadana Basalts,-5.25,105.65,Cluster | Fissure vent,261822
Sukai-Kesemaru,36.687,139.34,Composite | Stratovolcano(es),283859
Sultan,29.1,62.8,Cluster | Volcanic field,232801
Sultan Hamud-Simba,-2.12,37.4,Cluster | Volcanic field,222812
Sumon,37.395,139.14,Composite | Stratovolcano,283868
Sunagohara,37.454,139.688,Caldera | Caldera,283869
Sunequera,-21.98,-67.23,Shield | Shield,355837
Sutter Buttes,39.206,-121.821,Minor | Lava dome(s),323821
Suphan Dagi,38.931,42.833,Composite | Stratovolcano,213021
Sverrefjell,79.43,13.3,Minor | Pyroclastic cone,377802
Syoyo Ridge,22.546,142.863,Composite | Complex,284122
Tabar,-2.9481,152.0364,Composite | Stratovolcano,254800
Sokol,55.2,160.52,Composite | Stratovolcano,300852
Taftan,28.6,61.13,Composite | Stratovolcano,232050
Taga,35.078,139.031,Composite | Stratovolcano,283820
Tahiti-Iti,-17.798,-149.237,Shield | Shield,333804
Tahiti-Nui,-17.696,-149.523,Shield | Shield,333803
South Coromandel Peninsula,-37.25,175.78,Cluster | Volcanic field,241807
Taihangshanlu,38.0,113.75,Unknown | Unknown,305842
Takamatsu,38.965,140.61,Composite | Stratovolcano,283880
Tahulandang,2.3533,125.4119,Caldera | Caldera,267012
Takara,35.343,134.922,Shield | Shield,283813
"Tablas, Cerro las",14.07,-89.4,Composite | Stratovolcano(es),343801
Sonne,-34.077,179.576,Composite | Stratovolcano,241200
Tamagawa,39.897,140.781,Caldera | Caldera,283886
Tacora,-17.7209,-69.7728,Composite | Stratovolcano(es),355010
Takur-Takur,3.222,98.627,Unknown | Unknown,261812
Tamai,-13.746,-170.543,Composite | Stratovolcano,244013
Takayashiro,36.796,138.407,Composite | Stratovolcano,283851
Tamata,2.7183,125.3823,Composite | Stratovolcano,267019
Tambo Quemado,-18.62,-68.75,Shield | Shield(pyroclastic),355021
Tambor Grande,10.97,-84.08,Caldera | Caldera,344805
Tanaba,34.907,138.852,Composite | Stratovolcano,283816
Tanga,-3.4669,153.201,Composite | Stratovolcano,254801
Tanggamus,-5.427,104.675,Composite | Stratovolcano,261865
Tanada,62.3,-143.52,Shield | Shield,315804
South East Range,17.33,-62.77,Composite | Stratovolcano,360805
Tangy'n,35.25,114.5,Unknown | Unknown,305834
Tangi,-5.67,148.4,Composite | Stratovolcano,252800
Taos Plateau,36.83,-105.83,Cluster | Volcanic field,327818
Taradake,32.984,130.079,Composite | Stratovolcano,282811
Tarowa,-8.704,118.161,Caldera | Caldera,264845
Tashiro,40.426,140.412,Composite | Stratovolcano,283890
"Tatio, Volcan",-22.42,-68.02,Composite | Stratovolcano,355840
"Tatajachura, Cerro",-19.5,-69.12,Composite | Stratovolcano,355817
Tawau Hills,4.383,117.95,Cluster | Pyroclastic cone,269010
Tavani Ruro,-16.8004,168.4383,Composite | Stratovolcano,257062
Tauranga Volcanic Centre,-37.833,176.1,Cluster | Volcanic field,241824
Taylor Valley,-77.748,161.526,Minor | Pyroclastic cone(s),390819
Taylor Butte,43.805,-122.018,Shield | Shield,322814
Taylor Volcanic Field,35.33,-107.45,Composite | Stratovolcano,327814
Tazawa,39.718,140.665,Caldera | Caldera(?),283883
Tekletunup,57.75,160.23,Shield | Shield,300901
"Telago, Gunung",4.47,96.82,Unknown | Unknown,261807
Te Kawa,-38.079,175.295,Minor | Cone,241822
Soranuma,42.863,141.257,Shield | Shield,285814
Telapon,19.37,-98.72,Composite | Stratovolcano,341826
Telaga,0.7225,127.427,Caldera | Caldera,268064
Telomoyo,-7.3613,110.3998,Composite | Stratovolcano,263231
"Telor, Bukit",-1.245,103.523,Minor | Pyroclastic cone,261818
"Tenaroh, Bukit",3.12,98.63,Unknown | Unknown,261813
Tengu-Hirayama,43.776,143.016,Composite | Stratovolcano(es),285819
Tenshi,34.924,138.968,Composite | Stratovolcano,283818
Terre de Bas,15.87,-61.63,Composite | Stratovolcano(es),360813
Tepi,7.424,35.43,Shield | Shield,221292
Tequila,20.788,-103.847,Composite | Stratovolcano,341818
Terror,-77.52,168.55,Shield | Shield,390813
Thaton,17.42,96.95,Cluster | Fissure vent(s),275821
Teu Minas,5.17,96.43,Composite | Stratovolcano,261802
Tepetiltic,21.27,-104.7,Composite | Stratovolcano,341813
Thielsen,43.153,-122.065,Shield | Shield,322827
Thorisjokull,64.53,-20.7,Shield | Shield,371805
"Tiga, Bukit",-3.308,102.256,Composite | Stratovolcano,261202
Thomazeau,18.68,-72.08,Minor | Pyroclastic cone(s),360801
Three Fingered Jack,44.48,-121.842,Shield | Shield(s),322805
Tigalalu,0.07,127.42,Composite | Stratovolcano,268071
Thompson,-35.285,178.863,Composite | Stratovolcano,241133
Tigilsky,56.812,159.111,Shield | Shield,300888
Tilu,-7.156,107.529,Composite | Stratovolcano,263804
"Tilaran, Cerro",10.4665,-84.9765,Shield | Shield,345801
Tlaloc,19.411,-98.713,Composite | Stratovolcano,341825
Tisingal,8.88,-82.67,Composite | Stratovolcano,346800
Tigris Lava Flows,37.13,41.85,Cluster | Volcanic field,230800
Tabarin Peninsula,-63.6,-57.0,Shield | Shield?,390828
Tisa,-14.407,-171.221,Composite | Stratovolcano,244035
Tin Taralle Volcanic Field,18.27,9.33,Cluster | Volcanic field,225800
Togiak Valley,59.2,-160.08,Cluster | Volcanic field,314803
"Tocorpuri, Cerros de",-22.439,-67.888,Composite | Stratovolcano,355842
Tokachi-Eboshi,43.376,143.133,Minor | Lava dome(s),285823
Toba,2.6083,98.8417,Caldera | Caldera,261090
Tokara Hirase,30.036,130.058,Unknown | Unknown,282820
Tokachi-Mitsumata,43.52,143.15,Caldera | Caldera,285822
Tocomar,-24.2,-66.5,Cluster | Unknown,355865
Tolmachev,52.55,157.73,Composite | Stratovolcano(es),300823
Tomuraushi Volcanic Group,43.525,142.852,Composite | Stratovolcano(es),285816
Toney Mountain,-75.8,-115.83,Shield | Shield,390026
Tore,-5.835,154.935,Minor | Lava cone,255000
Tongoa,-16.9,168.5611,Composite | Unknown,257075
Torikabuto,36.836,138.587,Composite | Stratovolcano,283854
Torre Alfina,42.753,11.943,Minor | Volcanic remnant,211802
Toroeng Prong,14.733,108.483,Unknown | Pyroclastic cone,275030
Tosa Sucha,5.967,37.629,Cluster | Pyroclastic cone(s),221310
Tokuyama-Mitake,34.189,131.844,Minor | Lava dome,283802
Tomuro,36.528,136.75,Minor | Lava dome(s),283836
Tracey Seamount,13.65,144.42,Composite | Stratovolcano,284803
Tortuguero,10.586,-83.53,Minor | Pyroclastic cone,345808
Toku,-18.163,-174.181,Composite | Stratovolcano,243095
Tolokiwa,-5.32,147.58,Composite | Stratovolcano,251804
Trader Mountain,55.565,-161.944,Composite | Stratovolcano,312801
Trafalgar,-9.17,149.17,Composite | Stratovolcano,253815
"Trautrén, Cerro",-39.17,-71.4,Composite | Stratovolcano(es),357810
Table Mountain,40.557,-121.55,Composite | Stratovolcano,323815
Transantarctic Mountain Foothills,-78.0,163.83,Minor | Unknown,390817
Tondano Caldera,1.23,124.83,Caldera | Caldera,266070
Tretya Rechka,51.4,156.57,Shield | Shield,300803
Tres Virgenes,27.47,-112.591,Composite | Stratovolcano(es),341010
Tri Sestry,45.9256,149.9222,Composite | Stratovolcano,290113
Tralihue,-38.509,-70.898,Composite | Stratovolcano,357101
Tres Cruces,-27.08,-68.8,Composite | Stratovolcano,355862
Trindade,-20.514,-29.331,Composite | Stratovolcano,385051
Trolon,-37.738,-70.906,Minor | Lava dome(s),357081
Tujuh,-1.7,101.42,Composite | Stratovolcano,261861
Tukuyu,-9.26,33.648,Shield | Shield,422826
Tumac Mountain,46.713,-121.352,Minor | Pyroclastic cone,321800
Tulaga,-14.518,-170.024,Composite | Unknown,244022
Tumanniy,51.191,156.939,Shield | Shield,300801
Tumble Buttes,40.68,-121.55,Minor | Pyroclastic cone(s),323060
Tumisa,-23.46,-67.81,Composite | Stratovolcano,355851
Tumrok,55.37,160.87,Shield | Shield,300853
Tungnaarfjoll,64.164,-18.496,Cluster | Fissure vent(s),373800
Tunkin Depression,51.5,102.5,Cluster | Volcanic field,302050
Tuzgle,-24.0562,-66.479,Composite | Stratovolcano,355150
Tsirk,45.4,148.58,Caldera | Caldera,290802
Tafna Beni Saf,35.28,-1.45,Cluster | Volcanic field,225805
Tungkat,-2.48,102.026,Unknown | Unknown,461840
Tuzo Wilson Knolls,51.38,-131.03,Minor | Lava dome?,331100
Tupungato,-33.359,-69.77,Composite | Stratovolcano,357800
Tshibinda,-2.32,28.75,Cluster | Pyroclastic cone(s),223080
"Tudeuk, Gunung",5.0,96.57,Minor | Lava dome,261805
Tumalo,44.099,-121.541,Minor | Lava dome(s),322810
Tsaolingshan,24.83,121.28,Shield | Shield,281801
Tuzovsky,57.32,159.967,Shield | Shield(s),300540
Udochka,52.5,157.2,Shield | Shield,300821
Udonejima,34.469,139.297,Composite | Stratovolcano,284800
Ueno,35.59,137.505,Shield | Shield,283827
Uka,57.706,160.59,Shield | Shield,300610
Uksichan,56.08,158.38,Shield | Shield,300350
Tsuruta,35.338,133.422,Minor | Pyroclastic cone(s),283810
Uchkoren,57.27,161.35,Composite | Unknown,300864
Ulubelu,-5.334,104.59,Caldera | Caldera,261280
Unabetsu,43.874,144.881,Composite | Stratovolcano,285828
Unana,54.63,159.72,Composite | Stratovolcano,300846
Ulvaney,57.78,160.62,Shield | Shield,300902
Tynua,55.85,157.87,Shield | Shield(s),300870
Ungaran,-7.1876,110.3455,Composite | Stratovolcano,263230
Undurer,12.171,41.396,Composite | Stratovolcano,221824
Unnamed,40.058,45.608,Cluster | Volcanic field,214804
Unea,-4.888,149.143,Caldera | Caldera,252811
Unnamed,39.617,46.1,Cluster | Volcanic field,214805
Twin Buttes,40.777,-121.591,Cluster | Pyroclastic cone(s),323040
Unnamed,19.45,105.53,Cluster | Volcanic field,275801
Unnamed,51.95,157.02,Shield | Shield,300812
Unnamed,56.53,160.87,Cluster | Pyroclastic cone(s),300861
Unnamed,54.37,159.43,Composite | Stratovolcano,300845
Unnamed,55.52,158.43,Shield | Shield,300873
Unnamed,55.88,158.83,Composite | Stratovolcano(es),300877
Unnamed,56.93,159.95,Minor | Lava dome(s),300895
Unnamed,56.97,158.75,Shield | Shield,300886
Unnamed,35.47,82.92,Unknown | Unknown,304803
Unnamed,35.85,91.7,Cluster | Volcanic field,304040
Unnamed,38.75,115.0,Unknown | Unknown,305843
Unnamed,14.65,-61.08,Cluster | Volcanic field,360816
Unnamed,37.0,114.5,Unknown | Unknown,305841
Unnamed,39.25,113.52,Unknown | Unknown,305844
Unnamed,23.3,116.15,Unknown | Unknown,305831
Unnamed,2.2,-76.03,Cluster | Volcanic field,351807
Unnamed,-73.45,164.58,Cluster | Pyroclastic cone(s),390014
Unnamed,-19.438,-174.952,Composite | Stratovolcano,243065
Unnamed,-21.804,-175.941,Composite | Stratovolcano,243009
Unnamed,-50.457,-139.154,Minor | Cone,335040
Unnamed,-22.096,-176.0,Composite | Stratovolcano,243013
Unnamed,-22.459,-176.351,Composite | Stratovolcano,243016
Unnamed,-22.219,-176.124,Composite | Stratovolcano,243014
Unnamed,-22.061,-176.21,Composite | Stratovolcano,243012
Unnamed,-22.846,-176.43,Composite | Stratovolcano,243018
Unnamed,-23.878,-176.788,Composite | Stratovolcano,243007
Unnamed,-24.475,-176.923,Composite | Stratovolcano,243005
Unnamed,-23.581,-176.663,Composite | Stratovolcano,243008
Unnamed,-24.178,-176.887,Composite | Stratovolcano,243006
Unnamed,-24.58,-176.924,Composite | Stratovolcano,243004
Unnamed,-25.15,-177.18,Composite | Stratovolcano,243002
Unnamed,-25.418,-177.103,Composite | Stratovolcano,243003
Unnamed,-16.2,-173.92,Composite | Stratovolcano,243104
Unnamed,-16.655,-173.773,Composite | Stratovolcano,243105
Unnamed,-17.231,-173.962,Composite | Stratovolcano,243107
Unnamed,-16.968,-173.848,Composite | Stratovolcano,243106
Unnamed,-17.551,-174.154,Composite | Stratovolcano,243108
Unnamed,-17.842,-174.197,Composite | Stratovolcano,243109
Unnamed,-18.1961,168.8243,Composite | Stratovolcano,257085
Vakak Group,34.25,67.97,Cluster | Volcanic field,232070
Vakinankaratra,-19.85,46.942,Cluster | Volcanic field,233015
Valdalda,64.97,-16.48,Shield | Shield,373802
Uturuncu,-22.27,-67.18,Composite | Stratovolcano,355838
Valle Nuevo,18.83,-70.67,Cluster | Volcanic field,360804
Utila Volcanic Center,16.113,-86.888,Minor | Pyroclastic cone(s),343160
Utsukushigahara,36.223,138.111,Shield | Shield,283826
"Valle, El",8.6071,-80.1278,Composite | Stratovolcano,346030
Ventotene,40.8,13.42,Composite | Stratovolcano(es),211813
Utara Wetar,-6.635,126.66,Composite | Stratovolcano,265030
Ventura Volcanic Field,22.35,-100.7,Cluster | Maar(s),341809
Vangunu,-8.67,158.0,Composite | Stratovolcano,255808
Verkhovoy,56.52,159.53,Shield | Shield,300440
Viai,-3.39,144.404,Composite | Stratovolcano,251801
"Verde, Laguna",-23.252,-67.71,Composite | Stratovolcano,355849
Ustica,38.72,13.18,Composite | Stratovolcano(es),211819
Vico-Cimino Complex,42.367,12.188,Composite | Stratovolcano(es),211808
"Vigie, Morne la",18.78,-72.28,Minor | Pyroclastic cone,360800
Vershinsky,53.6,158.7,Composite | Stratovolcano,300833
Vinkh-Linkh,17.08,107.05,Minor | Cone,275803
Vilacollo,-18.241,-69.307,Minor | Pyroclastic cone(s),355812
Vitim Volcanic Field,53.75,113.25,Cluster | Volcanic field,302040
"Volcan, El",-22.33,-67.97,Composite | Stratovolcano,355841
Volcano OP,-28.218,-177.692,Composite | Stratovolcano,242032
Vokeo,-3.2,144.1,Composite | Stratovolcano,251800
Volcano Q,-27.468,-177.506,Composite | Stratovolcano,242041
Volsmar,-21.4847,170.2181,Cluster | Volcanic field,258005
"Volcanes, Los",20.33,-104.5,Cluster | Volcanic field,341816
Usangu Scarp Basalt,-8.624,33.583,Minor | Pyroclastic cone,222162
Vostochnaya Khodutka,51.93,157.73,Shield | Shield(s),300809
Voyampolsky,58.374,160.631,Shield | Shield(s),300720
"Vulture, Monte",40.92,15.67,Composite | Stratovolcano,211812
Volos-Atalanti,39.033,22.8,Cluster | Volcanic field,212801
Waianae,21.52,-158.15,Shield | Shield,332808
Waesche,-77.17,-126.88,Shield | Shield(s),390024
Waikama,-18.02,179.3,Composite | Complex,245801
Vysokii,51.116,156.892,Composite | Stratovolcano,300800
Washiba-Kumonotaira,36.408,137.594,Shield | Shield(s),283071
Wallis Islands,-13.275,-176.206,Shield | Shield(s),244050
Washibetsu,42.433,141.007,Composite | Stratovolcano,285808
Washington,44.332,-121.837,Shield | Shield,322807
Usami,34.968,139.063,Composite | Stratovolcano,283819
Wayang-Windu,-7.213,107.637,Minor | Lava dome,263080
Vulsini,42.6,11.93,Caldera | Caldera,211003
Wenman,1.37,-91.8,Shield | Shield,353801
Weizhoudao,21.05,109.13,Shield | Shield,275800
Waw an Namous,24.906,17.772,Caldera | Caldera,225008
West Maui,20.88,-156.6,Shield | Shield,332803
Whaleback,41.528,-122.14,Shield | Shield,323802
West Molokai,21.15,-157.17,Shield | Shield,332806
White Island,-78.17,167.5,Shield | Shield(s),390815
Wilis,-7.808,111.758,Composite | Stratovolcano,263270
William,-18.7,169.08,Composite | Stratovolcano,257805
Williamson Mountain,43.924,-121.825,Shield | Shield(s),322812
Willow Peak,39.662,-107.17,Minor | Pyroclastic cone,328801
Wilson,45.066,-121.658,Shield | Shield(s),322803
Wuksi Butte-Twin Lakes,43.77,-121.77,Cluster | Volcanic field,322816
Y'Ami-North,21.0868,121.942,Composite | Compound,274080
Yabakei,33.169,131.221,Caldera | Caldera,282813
Yakeishi,39.161,140.832,Composite | Stratovolcano,283882
Yanaurcu de Pinan,0.484,-78.329,Composite | Stratovolcano,352800
Yali,36.6666,27.1224,Composite | Lava dome(s),212051
Ureparapara,-13.53,167.32,Composite | Stratovolcano,257800
Yanpat,56.53,158.8,Shield | Shield(s),300882
Yatsugatake,35.968,138.373,Composite | Stratovolcano(es),283824
"Yeguada, La",8.47,-80.82,Composite | Stratovolcano,346801
Yelia,-7.05,145.858,Composite | Stratovolcano,253002
"Yayantique, Cerro",13.435,-87.999,Composite | Stratovolcano(es),343805
Yichuan,34.0,113.0,Cluster | Volcanic field,305833
Yitong Group,43.33,125.25,Minor | Lava dome(s),305853
Yokosuka,-34.709,178.545,Composite | Stratovolcano,241141
Yokote,35.201,133.267,Minor | Pyroclastic cone(s),283807
Yellowstone,44.43,-110.67,Caldera | Caldera(s),325010
Urbich Caldera,44.6252,147.2005,Caldera | Caldera(s),290800
"Zapaleri, Cerro",-22.82,-67.18,Composite | Stratovolcano,355843
Zarechny,56.38,160.83,Caldera | Caldera(s),300859
"Zacatillo, Isla",13.295,-87.761,Minor | Pyroclastic cone(s),343807
Zenikame,41.706,140.814,Caldera | Caldera,285802
Zheltiy,51.93,157.6,Composite | Stratovolcano,300810
Zaozerny,56.88,159.95,Shield | Shield(s),300480
Zhupanovskiye Vostriyaky,53.8,159.28,Composite | Stratovolcano,300840
Yura Volcanic Field,-16.213,-71.725,Cluster | Volcanic field,354008
Zikwala,8.53,38.85,Composite | Stratovolcano,221816
Zardolou Group,33.25,67.92,Minor | Lava dome(s),232809
Yugawara,35.173,139.029,Composite | Stratovolcano,283821
Yuga-mine,35.802,137.284,Minor | Lava dome,283828
Yokotsu,41.935,140.775,Composite | Stratovolcano,285804
Vance Segment,45.3,-130.1,Cluster | Fissure vent,331025
Valles Caldera,35.908,-106.517,Caldera | Caldera,327817
